{"type":"FeatureCollection","features":[{"type":"Feature","id":"node/33698213","properties":{"name":"Kahvila Roosa"},"geometry":{"type":"Point","coordinates":[24.8437196,60.5187547]}},{"type":"Feature","id":"node/51418546","properties":{"name":"St1:n kahvila"},"geometry":{"type":"Point","coordinates":[25.0520591,60.2063168]}},{"type":"Feature","id":"node/53720251","properties":{"name":"Starkin kahvila"},"geometry":{"type":"Point","coordinates":[25.0468871,60.194569]}},{"type":"Feature","id":"node/54637826","properties":{"name":"Venesataman kahvila"},"geometry":{"type":"Point","coordinates":[24.9919404,60.1865123]}},{"type":"Feature","id":"node/59035034","properties":{"name":"Café Ateriax","website":"http://ateriax.fi/"},"geometry":{"type":"Point","coordinates":[25.0777342,60.2243031]}},{"type":"Feature","id":"node/59952436","properties":{"name":"K-Raudan kahvio","website":"http://www.k-rauta.fi/"},"geometry":{"type":"Point","coordinates":[25.0615535,60.2102866]}},{"type":"Feature","id":"node/60068035","properties":{"name":"Cafe Java","opening_hours":"Mo,Tu 08:00-22:00; We-Sa 08:00-24:00, Su 09:00-22:00","url":"http://www.cafejava.fi/"},"geometry":{"type":"Point","coordinates":[24.937518,60.169967]}},{"type":"Feature","id":"node/60072511","properties":{"name":"Café Succès","opening_hours":"Mo-Fr 08:00-18:00; Sa 10:00-17:00; Su 12:00-17:00; Jul 01-31 Sa-Su off; PH off","website":"https://www.facebook.com/cafesucces"},"geometry":{"type":"Point","coordinates":[24.9464208,60.1599267]}},{"type":"Feature","id":"node/60124699","properties":{"name":"Cafe Regatta","opening_hours":"Mo-Fr 09:00-20:00; Sa-Su 08:00-21:00"},"geometry":{"type":"Point","coordinates":[24.9117982,60.1801647]}},{"type":"Feature","id":"node/60428328","properties":{"name":"Manaatti"},"geometry":{"type":"Point","coordinates":[25.0362518,60.1869533]}},{"type":"Feature","id":"node/61907312","properties":{"name":"Robert's Coffee","opening_hours":"Mo-Fr 09:00-21:00; Sa 09:00-21:00; Su 12:00-18:00","website":"https://www.robertscoffee.com/cafe/stockmann-itis/"},"geometry":{"type":"Point","coordinates":[25.0848729,60.2132848]}},{"type":"Feature","id":"node/66421566","properties":{"name":"Naantalin Aurinkoinen"},"geometry":{"type":"Point","coordinates":[22.2561574,60.4524784]}},{"type":"Feature","id":"node/73114098","properties":{"name":"Cafe Kahvikuja","website":"http://www.facebook.com/HHcafekahvikuja"},"geometry":{"type":"Point","coordinates":[25.146376,60.2061581]}},{"type":"Feature","id":"node/80259831","properties":{"name":"Aschan Coffee & Deli"},"geometry":{"type":"Point","coordinates":[21.614537,63.0964486]}},{"type":"Feature","id":"node/81388717","properties":{"name":"Kotileipomo Hämäläinen","opening_hours":"Mo-Fr 08:00-18:00; Sa 09:00-16:00","website":"https://www.kotileipomohamalainen.fi"},"geometry":{"type":"Point","coordinates":[21.6132008,63.0962061]}},{"type":"Feature","id":"node/81392347","properties":{"name":"Cafe Paris"},"geometry":{"type":"Point","coordinates":[21.6147229,63.0958543]}},{"type":"Feature","id":"node/84441134","properties":{"name":"Frisee"},"geometry":{"type":"Point","coordinates":[25.2599409,62.7048045]}},{"type":"Feature","id":"node/89123693","properties":{"name":"Marian konditoria"},"geometry":{"type":"Point","coordinates":[25.0847852,60.2367178]}},{"type":"Feature","id":"node/116703845","properties":{"name":"Robert's Coffee","website":"https://robertscoffee.com/"},"geometry":{"type":"Point","coordinates":[24.9306796,60.1681411]}},{"type":"Feature","id":"node/146489323","properties":{"name":"Café Cable"},"geometry":{"type":"Point","coordinates":[24.9061837,60.1629349]}},{"type":"Feature","id":"node/146506541","properties":{"name":"Picnic Ruoholahti","url":"http://www.picnic.fi","website":"https://www.picnic.fi"},"geometry":{"type":"Point","coordinates":[24.9152812,60.1635455]}},{"type":"Feature","id":"node/146523124","properties":{"name":"Sport cafe"},"geometry":{"type":"Point","coordinates":[25.0259943,60.2294634]}},{"type":"Feature","id":"node/150541320","properties":{"name":"Cafè Sanomakahvila","website":"https://www.fazer.fi/kahvilat-ja-leipomot/ravintolat/byfazer/sanomacafe/"},"geometry":{"type":"Point","coordinates":[24.937381,60.1725449]}},{"type":"Feature","id":"node/151006083","properties":{"name":"Picnic","opening_hours":"Mo-Fr 7:00-18:00; Sa 10:00-16:00","website":"http://www.picnic.fi/"},"geometry":{"type":"Point","coordinates":[24.9364905,60.1645227]}},{"type":"Feature","id":"node/151006533","properties":{"name":"Cafe Ekberg","opening_hours":"Mo-Fr 7:30-19:00;Sa 8:30-17:00;Su 9:00-17:00","website":"http://www.cafeekberg.fi/"},"geometry":{"type":"Point","coordinates":[24.9377736,60.1647366]}},{"type":"Feature","id":"node/151006709","properties":{"name":"Kakkugalleria","opening_hours":"Mo-Fr 11:00-19:00; Sa 10:00-18:00; Su 12:00-17:00","website":"https://www.kakkugalleria.com/"},"geometry":{"type":"Point","coordinates":[24.9360783,60.1651791]}},{"type":"Feature","id":"node/151007313","properties":{"name":"Gran Delicato","opening_hours":"Mo-Fr 8:00-20:00; Sa 10:00-18:00; Su 12:00-18:00","website":"http://www.grandelicato.fi/"},"geometry":{"type":"Point","coordinates":[24.9322832,60.1652197]}},{"type":"Feature","id":"node/159806896","properties":{"name":"Café Kukko","url":"http://www.cafekukko.fi/","website":"http://cafekukko.fi/"},"geometry":{"type":"Point","coordinates":[24.464629,60.994896]}},{"type":"Feature","id":"node/159815975","properties":{"name":"Café Green Laurell","url":"http://www.laurell.fi/","website":"http://laurell.fi/kahvilat/green-laurell"},"geometry":{"type":"Point","coordinates":[24.4670471,60.9964593]}},{"type":"Feature","id":"node/159845798","properties":{"name":"Café Laurell","url":"http://www.laurell.fi/"},"geometry":{"type":"Point","coordinates":[24.4639723,60.9962014]}},{"type":"Feature","id":"node/174966777","properties":{"name":"Picnic","opening_hours":"Mo-Fr 07:30-19:00; Sa 10:00-16:00","website":"https://www.picnic.fi"},"geometry":{"type":"Point","coordinates":[25.031618,60.1929028]}},{"type":"Feature","id":"node/207628450","properties":{"name":"Kylätuvan kahvio"},"geometry":{"type":"Point","coordinates":[25.3681662,62.763324]}},{"type":"Feature","id":"node/227709636","properties":{"name":"Konditoria Hopia","website":"http://www.konditoriahopia.fi/"},"geometry":{"type":"Point","coordinates":[24.9664618,60.2084991]}},{"type":"Feature","id":"node/241485623","properties":{"name":"Fontana","opening_hours":"Mo-Th 10:00-22:00; Fr-Sa 10:00-23:00; Su 12:00-19:00","url":"http://fontana.torre.fi/"},"geometry":{"type":"Point","coordinates":[22.2684998,60.4496678]}},{"type":"Feature","id":"node/242092686","properties":{"name":"Neste Saariselkä","website":"https://www.nestesaariselka.fi/"},"geometry":{"type":"Point","coordinates":[27.4096039,68.4224475]}},{"type":"Feature","id":"node/242121272","properties":{"name":"Huippu","website":"http://www.kaunispaanhuippu.fi/"},"geometry":{"type":"Point","coordinates":[27.4433015,68.4335449]}},{"type":"Feature","id":"node/242121894","properties":{"name":"Laanilan Savottakahvila","opening_hours":"Mo-Su 09:00-20:00","website":"http://www.savottakahvila.fi/"},"geometry":{"type":"Point","coordinates":[27.3997638,68.3911294]}},{"type":"Feature","id":"node/242151203","properties":{"name":"Hotel and Igloo Village Kakslauttanen","website":"http://www.kakslauttanen.fi"},"geometry":{"type":"Point","coordinates":[27.33396,68.3344841]}},{"type":"Feature","id":"node/242156907","properties":{"name":"Joikun kota","website":"www.joikukotsamo.fi/fin/joikunkota"},"geometry":{"type":"Point","coordinates":[27.4900894,68.4649289]}},{"type":"Feature","id":"node/242162233","properties":{"name":"Cafe-ravintola Kuukkeli","opening_hours":"mo-su 09:00-21:00","website":"http://www.accommodationkuukkeli.com/restaurant/"},"geometry":{"type":"Point","coordinates":[27.4100738,68.4198899]}},{"type":"Feature","id":"node/246535548","properties":{"name":"Othello"},"geometry":{"type":"Point","coordinates":[21.5953755,63.1088872]}},{"type":"Feature","id":"node/247416118","properties":{"name":"Jääpuiston kahvila","website":"https://www.jaapuisto.fi/kahvila/"},"geometry":{"type":"Point","coordinates":[24.9444687,60.1710001]}},{"type":"Feature","id":"node/249883326","properties":{"name":"Cafe Commerce"},"geometry":{"type":"Point","coordinates":[21.6170329,63.0961741]}},{"type":"Feature","id":"node/249883329","properties":{"name":"Görans Konditori"},"geometry":{"type":"Point","coordinates":[21.6145007,63.0958266]}},{"type":"Feature","id":"node/249883373","properties":{"name":"Cafe Proosa"},"geometry":{"type":"Point","coordinates":[21.610486,63.0994099]}},{"type":"Feature","id":"node/250576139","properties":{"name":"Kahvio Teboil Itäväylä","website":"https://www.teboilitavayla.com/kahvio-ravintola/"},"geometry":{"type":"Point","coordinates":[25.1151161,60.2232842]}},{"type":"Feature","id":"node/250839073","properties":{"name":"Nurmi & Sulonen","opening_hours":"Mo-Fr 08:00-17:00","website":"https://nurmisulonen.fi/myymala-kahvilat/"},"geometry":{"type":"Point","coordinates":[22.2804921,60.4511381]}},{"type":"Feature","id":"node/251202062","properties":{"name":"Stiina"},"geometry":{"type":"Point","coordinates":[23.130084,63.8363581]}},{"type":"Feature","id":"node/251977387","properties":{"name":"St1 Kesälahti","opening_hours":"Mo-Fr 06:00-21:00,Sa-Su 07:00-21:00"},"geometry":{"type":"Point","coordinates":[29.8122164,61.9041105]}},{"type":"Feature","id":"node/253755733","properties":{"name":"Submarine"},"geometry":{"type":"Point","coordinates":[25.7201761,62.2865668]}},{"type":"Feature","id":"node/253912275","properties":{},"geometry":{"type":"Point","coordinates":[24.0536029,65.9590492]}},{"type":"Feature","id":"node/253915534","properties":{"name":"Tuomaan Tupa","website":"https://www.tuomaantupa.fi/"},"geometry":{"type":"Point","coordinates":[23.8653279,66.5532412]}},{"type":"Feature","id":"node/254282071","properties":{"name":"Palovartija","url":"http://www.levirestaurants.fi/ravintolat/palovartija.html"},"geometry":{"type":"Point","coordinates":[24.8540174,67.7846246]}},{"type":"Feature","id":"node/255329160","properties":{"name":"Kuokkalan Konditoria Pizzeria","website":"http://www.linkkihakemisto.net/kuokkalankonditoria/"},"geometry":{"type":"Point","coordinates":[25.7716854,62.2279338]}},{"type":"Feature","id":"node/256827522","properties":{"name":"Leipomon baari","opening_hours":"Mo-Fr 06:00-17:00; Sa 08:30-14:00; Su off"},"geometry":{"type":"Point","coordinates":[30.9347159,62.6700778]}},{"type":"Feature","id":"node/257432417","properties":{"name":"Авро","url":"http://www.avroholding.com/services.aspx?pid=17"},"geometry":{"type":"Point","coordinates":[29.5298674,60.3589105]}},{"type":"Feature","id":"node/258122668","properties":{"name":"Слойка","opening_hours":"Mo-Fr 09:00-19:00; Sa,Su off"},"geometry":{"type":"Point","coordinates":[30.31199,59.9592619]}},{"type":"Feature","id":"node/260241914","properties":{"name":"Kauppaneuvoksen kahvila","opening_hours":"Mo-Fr 10:00-17:00; Sa 10:00-15:00"},"geometry":{"type":"Point","coordinates":[29.7633376,62.599412]}},{"type":"Feature","id":"node/260423155","properties":{"name":"Coffee House","opening_hours":"Mo-Fr 07:30-21:00; Sa 09:00-21:00; Su 10:00-19:00"},"geometry":{"type":"Point","coordinates":[29.7642095,62.6015543]}},{"type":"Feature","id":"node/260423989","properties":{"name":"Arnolds Bakery & Coffee","opening_hours":"Mo-Fr 09:00-19:00; Sa 9:00-17:00"},"geometry":{"type":"Point","coordinates":[29.7632222,62.6017993]}},{"type":"Feature","id":"node/260423993","properties":{"name":"Otto Trattoria & Caffé","opening_hours":"Mo-Fr 10:00-20:00; Sa 11:00-20:00","website":"http://www.trattoriaotto.fi/"},"geometry":{"type":"Point","coordinates":[29.7621914,62.6024282]}},{"type":"Feature","id":"node/261026894","properties":{"name":"Pylsyn Maisemakahvila"},"geometry":{"type":"Point","coordinates":[23.2323817,61.5877536]}},{"type":"Feature","id":"node/262312282","properties":{"name":"Pirtti"},"geometry":{"type":"Point","coordinates":[28.2647867,64.1374464]}},{"type":"Feature","id":"node/262387245","properties":{"name":"Villa Saaro","opening_hours":"Mo-Su 09:00-21:00"},"geometry":{"type":"Point","coordinates":[22.0941696,60.4226845]}},{"type":"Feature","id":"node/262485777","properties":{"name":"Ripa's"},"geometry":{"type":"Point","coordinates":[28.2676272,64.1281381]}},{"type":"Feature","id":"node/265595733","properties":{"name":"Mikrokulma","opening_hours":"Mo-Fr 08:00-18:00; Sa 09:00-15:00; Su off"},"geometry":{"type":"Point","coordinates":[25.6851149,60.401398]}},{"type":"Feature","id":"node/267022072","properties":{"name":"Nuuksion ulkoilumaja","url":"http://www.nuuksionmaja.com"},"geometry":{"type":"Point","coordinates":[24.5919487,60.2487138]}},{"type":"Feature","id":"node/267138070","properties":{"name":"Maijan taidekahvila"},"geometry":{"type":"Point","coordinates":[25.0030528,60.195789]}},{"type":"Feature","id":"node/267882754","properties":{},"geometry":{"type":"Point","coordinates":[22.2662705,60.4502767]}},{"type":"Feature","id":"node/274899445","properties":{"name":"Tunturiporo","opening_hours":"Mo-Fr 10:00-17:00","website":"http://www.tunturiporo.fi/"},"geometry":{"type":"Point","coordinates":[23.9967306,67.9481054]}},{"type":"Feature","id":"node/276985469","properties":{"name":"Porkkala Marin"},"geometry":{"type":"Point","coordinates":[24.423858,59.9841766]}},{"type":"Feature","id":"node/277379306","properties":{"name":"HHcafe","opening_hours":"Mo-Fr 08:00-20:00; Sa 08:00-20:00"},"geometry":{"type":"Point","coordinates":[23.1361303,63.8359889]}},{"type":"Feature","id":"node/277895400","properties":{"name":"Kulmakonditoria","opening_hours":"Mo-Sa 09:00-20:00; Su 10:00-18:00"},"geometry":{"type":"Point","coordinates":[25.1006512,60.4032085]}},{"type":"Feature","id":"node/278159978","properties":{"name":"SEO Äänekoski Mämmensalmi","opening_hours":"?? Mo-Fr 09:00-20:00; Sa 09:00-18:00; Su 10:00-20:00"},"geometry":{"type":"Point","coordinates":[25.6944405,62.642117]}},{"type":"Feature","id":"node/279625777","properties":{"name":"Café Merenneito"},"geometry":{"type":"Point","coordinates":[24.756459,60.1509152]}},{"type":"Feature","id":"node/279736253","properties":{},"geometry":{"type":"Point","coordinates":[24.9299875,60.1887782]}},{"type":"Feature","id":"node/281273718","properties":{"name":"Café Gamla Stan","opening_hours":"Mo-Su 11:00-19:00"},"geometry":{"type":"Point","coordinates":[23.4313067,59.9727081]}},{"type":"Feature","id":"node/281274000","properties":{"name":"Café Schjerfbeck"},"geometry":{"type":"Point","coordinates":[23.4347971,59.9744876]}},{"type":"Feature","id":"node/281435178","properties":{"name":"Café Bryggan","website":"https://cafebryggan.fi/"},"geometry":{"type":"Point","coordinates":[22.9026582,63.83658]}},{"type":"Feature","id":"node/282026041","properties":{"name":"Savulohi- ja kahvipaikka"},"geometry":{"type":"Point","coordinates":[25.9785676,61.4963068]}},{"type":"Feature","id":"node/283408112","properties":{"name":"Maunulan Maja","opening_hours":"We,Th 13:00-19:00; Sa,Su 10:00-16:00; Mo,Tu,Fr off","url":"http://www.helsinginlatu.fi/yhdistyksen_esittely/yhteystiedot2/mm/"},"geometry":{"type":"Point","coordinates":[24.9162233,60.2210371]}},{"type":"Feature","id":"node/283720029","properties":{"name":"Kahvio Korpikeidas","website":"https://korpikeidas.fi/"},"geometry":{"type":"Point","coordinates":[28.5824755,61.1162516]}},{"type":"Feature","id":"node/286385002","properties":{"name":"Nya Station","website":"https://nyastation.se/"},"geometry":{"type":"Point","coordinates":[20.2630492,63.8241809]}},{"type":"Feature","id":"node/287018292","properties":{"name":"Kahvio Mieli-Aitta","url":"http://www.mieliaitta.com/rakennus_kahvio.html"},"geometry":{"type":"Point","coordinates":[22.9387128,61.3560179]}},{"type":"Feature","id":"node/290725047","properties":{"name":"Teboilin kahvio","website":"fi-fi.facebook.com/TeboilKangasniemi/"},"geometry":{"type":"Point","coordinates":[26.6587647,62.0023445]}},{"type":"Feature","id":"node/290771083","properties":{"name":"Kahvila Ruusukuppi"},"geometry":{"type":"Point","coordinates":[26.6429012,61.9900229]}},{"type":"Feature","id":"node/290801011","properties":{"name":"Jari-Pekan kahvio","website":"www.jari-pekka.fi/hartola/"},"geometry":{"type":"Point","coordinates":[26.008219,61.5790414]}},{"type":"Feature","id":"node/293110667","properties":{"name":"Hesburger Kajaani Prisma"},"geometry":{"type":"Point","coordinates":[27.7470984,64.2214675]}},{"type":"Feature","id":"node/293387041","properties":{},"geometry":{"type":"Point","coordinates":[25.1308594,60.4382291]}},{"type":"Feature","id":"node/293891641","properties":{"name":"Peurankello"},"geometry":{"type":"Point","coordinates":[26.126643,61.0784678]}},{"type":"Feature","id":"node/293904706","properties":{},"geometry":{"type":"Point","coordinates":[28.7170905,60.80747]}},{"type":"Feature","id":"node/295220031","properties":{"name":"Nya konditoriet"},"geometry":{"type":"Point","coordinates":[20.261566,63.8262068]}},{"type":"Feature","id":"node/295220035","properties":{"name":"Mekka","opening_hours":"Mo-Fr 07:00-18:00; Sa 09:00-18:00; Su 10:00-18:00","website":"https://mekka.se/"},"geometry":{"type":"Point","coordinates":[20.2655241,63.8289466]}},{"type":"Feature","id":"node/295381310","properties":{"name":"Niihaman ulkoilumaja","opening_hours":"Mo-Su 10:00-20:00"},"geometry":{"type":"Point","coordinates":[23.8735879,61.5187015]}},{"type":"Feature","id":"node/295565475","properties":{"name":"Emma"},"geometry":{"type":"Point","coordinates":[22.6921055,63.5213281]}},{"type":"Feature","id":"node/296304342","properties":{"name":"Kirjakahvila","opening_hours":"Mo-Fr 12:00-18:00","website":"http://www.kirjakahvila.org/"},"geometry":{"type":"Point","coordinates":[22.2756098,60.4503889]}},{"type":"Feature","id":"node/296305099","properties":{"name":"Cafe Paawo"},"geometry":{"type":"Point","coordinates":[22.269631,60.4481508]}},{"type":"Feature","id":"node/297493928","properties":{"name":"Munkkikahvila","opening_hours":"9:00-21:00","url":"http://www.munkkikahvila.net","website":"https://www.munkkikahvila.net/?page=1"},"geometry":{"type":"Point","coordinates":[23.7319211,61.4963185]}},{"type":"Feature","id":"node/297921009","properties":{"name":"Maja Coffee Roastery","opening_hours":"We-Fr 12:00-17:00; Sa 12:00-16:30","website":"http://www.majacoffee.fi"},"geometry":{"type":"Point","coordinates":[24.8499702,60.1807779]}},{"type":"Feature","id":"node/297971704","properties":{"name":"Medicin Man"},"geometry":{"type":"Point","coordinates":[24.8575264,60.6296462]}},{"type":"Feature","id":"node/297972007","properties":{"name":"Zoom"},"geometry":{"type":"Point","coordinates":[24.858431,60.629642]}},{"type":"Feature","id":"node/304922665","properties":{"name":"Café Katri"},"geometry":{"type":"Point","coordinates":[24.4561463,61.0053543]}},{"type":"Feature","id":"node/304922666","properties":{"name":"Torikahvila Café Linna - Open air café","website":"http://www.visithameenlinna.fi/en/services/torikahvila-cafe-linna/"},"geometry":{"type":"Point","coordinates":[24.4647705,60.9963709]}},{"type":"Feature","id":"node/305880722","properties":{"name":"Больше Кофе!","opening_hours":"Mo-Th 10:00-22:00; Fr 10:00-23:00; Sa,Su 11:00-23:00"},"geometry":{"type":"Point","coordinates":[30.3205088,59.9545047]}},{"type":"Feature","id":"node/307465178","properties":{"name":"Cafe Engel","opening_hours":"Mo-Fr 08:00-21:00; Sa 09:00-21:00; Su 10:00-19:00"},"geometry":{"type":"Point","coordinates":[24.951745,60.168913]}},{"type":"Feature","id":"node/308700365","properties":{"name":"Kahvila Kuprikka"},"geometry":{"type":"Point","coordinates":[25.1313344,64.4095122]}},{"type":"Feature","id":"node/308776219","properties":{"name":"Fazer Café","opening_hours":"Mo-Fr 7:30-19:30, Sa 9:00-18:00, Su 10:00-16:00","website":"http://www.cafefazer.fi/"},"geometry":{"type":"Point","coordinates":[24.878253,60.2056755]}},{"type":"Feature","id":"node/311101157","properties":{"name":"Wonderful Taste","opening_hours":"09:00-22:00"},"geometry":{"type":"Point","coordinates":[30.2891334,59.9247731]}},{"type":"Feature","id":"node/311747780","properties":{"name":"Teemaa","opening_hours":"Mo-Fr 10:00-19:00; Sa-Su 12:00-18:00","website":"www.teemaa.com"},"geometry":{"type":"Point","coordinates":[24.9378131,60.1664027]}},{"type":"Feature","id":"node/312509816","properties":{"name":"Aulangon tornikahvila","opening_hours":"May Mo-Su 12:00-17:00; Jun,Jul; aug Mo-Su 11:00-19:00","website":"http://www.aulangontornikahvila.fi/"},"geometry":{"type":"Point","coordinates":[24.4690429,61.022048]}},{"type":"Feature","id":"node/313026289","properties":{"name":"Fisherman's Food","opening_hours":"Mo-Th 09:00-18:00; Fr 09:00-20:00; Sa 09:00-15:00; Su off","website":"https://fishermans.fi/"},"geometry":{"type":"Point","coordinates":[26.2284422,60.6391826]}},{"type":"Feature","id":"node/313675997","properties":{"name":"Arnold's"},"geometry":{"type":"Point","coordinates":[21.6134633,63.0954716]}},{"type":"Feature","id":"node/315892730","properties":{},"geometry":{"type":"Point","coordinates":[23.5127043,61.478182]}},{"type":"Feature","id":"node/316480983","properties":{"name":"Take Away Linnatuuli","opening_hours":"24/7","website":"https://linnatuuli.fi/suomi/kahvila.html"},"geometry":{"type":"Point","coordinates":[24.5968974,60.854795]}},{"type":"Feature","id":"node/317766538","properties":{"name":"Robert's Coffee","website":"https://robertscoffee.com/"},"geometry":{"type":"Point","coordinates":[24.940968,60.171085]}},{"type":"Feature","id":"node/322049855","properties":{"name":"Irish"},"geometry":{"type":"Point","coordinates":[30.2960086,59.9554791]}},{"type":"Feature","id":"node/324160086","properties":{"name":"Cafe Red"},"geometry":{"type":"Point","coordinates":[24.9265315,60.1714292]}},{"type":"Feature","id":"node/329434618","properties":{},"geometry":{"type":"Point","coordinates":[24.4646272,60.1026202]}},{"type":"Feature","id":"node/331209231","properties":{"name":"Auranmaja"},"geometry":{"type":"Point","coordinates":[25.5471585,65.0815988]}},{"type":"Feature","id":"node/331297939","properties":{"name":"Туутари-парк"},"geometry":{"type":"Point","coordinates":[30.1792749,59.6934373]}},{"type":"Feature","id":"node/332262951","properties":{"name":"Greek roll","opening_hours":"10:00-22:00"},"geometry":{"type":"Point","coordinates":[30.3147541,59.9609368]}},{"type":"Feature","id":"node/332263256","properties":{"name":"Coffee Room","opening_hours":"Mo-Fr 09:00-23:00; Sa-Su 10:00-23:00"},"geometry":{"type":"Point","coordinates":[30.3158122,59.9611742]}},{"type":"Feature","id":"node/332269019","properties":{"name":"Марка","opening_hours":"24/7"},"geometry":{"type":"Point","coordinates":[30.309297,59.9675752]}},{"type":"Feature","id":"node/334305843","properties":{"name":"Кондитерская Гастрономия","opening_hours":"Mo-Fr 09:00-20:00; Sa 11:00-19:00"},"geometry":{"type":"Point","coordinates":[30.3011217,59.9664043]}},{"type":"Feature","id":"node/336235835","properties":{"name":"Cafe Kuusijärvi","opening_hours":"Mo-Su 09:00-21:00","website":"https://www.cafekuusijarvi.fi/english/"},"geometry":{"type":"Point","coordinates":[25.113229,60.3137167]}},{"type":"Feature","id":"node/339806091","properties":{"name":"Kahvila Silta","opening_hours":"Mo-Su 11:00-20:00","website":"http://www.saaksmaensilta.com/"},"geometry":{"type":"Point","coordinates":[24.0442956,61.1833775]}},{"type":"Feature","id":"node/339989946","properties":{"name":"Blablabla eatery, bar & cafe","opening_hours":"Mo-Fr 09:00-19:00; Sa 11:00-18:00","website":"https://www.blablabla.fi/"},"geometry":{"type":"Point","coordinates":[25.0355622,60.2935681]}},{"type":"Feature","id":"node/340937836","properties":{"name":"Qulma","opening_hours":"Mo-Fr 08:00-17:00","website":"http://www.qulma.fi/"},"geometry":{"type":"Point","coordinates":[24.9567948,60.1715619]}},{"type":"Feature","id":"node/345585889","properties":{"name":"Satama Cafe & Bistro","website":"https://satamabistro.fi/"},"geometry":{"type":"Point","coordinates":[27.28184,61.688911]}},{"type":"Feature","id":"node/348998304","properties":{"name":"Ranta-Kivi","website":"www.facebook.com/RantaKivi"},"geometry":{"type":"Point","coordinates":[25.2807011,62.6988347]}},{"type":"Feature","id":"node/350514865","properties":{"name":"Makasiini-Kahvila"},"geometry":{"type":"Point","coordinates":[23.1227425,63.8350325]}},{"type":"Feature","id":"node/352757123","properties":{"name":"Zone café"},"geometry":{"type":"Point","coordinates":[25.7253998,66.5026826]}},{"type":"Feature","id":"node/352757293","properties":{"name":"Café Break"},"geometry":{"type":"Point","coordinates":[25.7258032,66.5028777]}},{"type":"Feature","id":"node/353172696","properties":{"name":"Tiinan tupa","opening_hours":"Mo-Su 10:00-18:00","website":"www.tiinantupa.com"},"geometry":{"type":"Point","coordinates":[26.8353162,62.4637454]}},{"type":"Feature","id":"node/355280520","properties":{"name":"Дамаск"},"geometry":{"type":"Point","coordinates":[30.3130787,59.957106]}},{"type":"Feature","id":"node/355559758","properties":{"name":"Coffee House"},"geometry":{"type":"Point","coordinates":[25.4720474,65.0123733]}},{"type":"Feature","id":"node/355701983","properties":{"name":"Coffee House"},"geometry":{"type":"Point","coordinates":[24.8071817,67.8054312]}},{"type":"Feature","id":"node/358472600","properties":{"name":"Cafe Erätori"},"geometry":{"type":"Point","coordinates":[25.0342291,60.2047407]}},{"type":"Feature","id":"node/359570349","properties":{"name":"Viaporin Deli & Café","opening_hours":"Mo-Su 11:00-18:00","website":"https://www.panimo.com/"},"geometry":{"type":"Point","coordinates":[24.9854076,60.148816]}},{"type":"Feature","id":"node/360714153","properties":{},"geometry":{"type":"Point","coordinates":[29.9424779,60.1207184]}},{"type":"Feature","id":"node/364366503","properties":{"name":"Tammipihan bakery&cafe"},"geometry":{"type":"Point","coordinates":[21.6162525,63.0978698]}},{"type":"Feature","id":"node/366867295","properties":{"name":"Caffe Nonna","opening_hours":"Mo-Fr 06:00-17:00"},"geometry":{"type":"Point","coordinates":[24.9355791,60.1579505]}},{"type":"Feature","id":"node/368291252","properties":{"name":"Coffee House","opening_hours":"Mo-Fr 08:30-19:00; Sa 09:00-18:00; Su 11:00-18:00","website":"https://www.raflaamo.fi/fi/helsinki/coffee-house-kannelmaki-helsinki/"},"geometry":{"type":"Point","coordinates":[24.8913647,60.2370789]}},{"type":"Feature","id":"node/370749468","properties":{"name":"Myötätuuli"},"geometry":{"type":"Point","coordinates":[25.7037889,60.8923983]}},{"type":"Feature","id":"node/370892673","properties":{"name":"Puukioski Munkkiniemi","opening_hours":"Mo-Fr 10:00-21:00; Sa-Su 11:00-21:00","website":"https://www.puukioskimunkkiniemi.com/"},"geometry":{"type":"Point","coordinates":[24.8764194,60.1982256]}},{"type":"Feature","id":"node/375977596","properties":{"name":"Presso"},"geometry":{"type":"Point","coordinates":[25.0886684,60.2137314]}},{"type":"Feature","id":"node/380355219","properties":{"name":"Shell Pello","website":"www.st1.fi/index.php?id=309&station=11190"},"geometry":{"type":"Point","coordinates":[23.9649582,66.7760475]}},{"type":"Feature","id":"node/380640477","properties":{"name":"Romanssikahvila"},"geometry":{"type":"Point","coordinates":[24.0548974,68.0590494]}},{"type":"Feature","id":"node/385122705","properties":{"name":"Sattmark","opening_hours":"Avataan vappuna 2021, Vi öppnar igen den första maj 2021.","website":"https://sattmark.fi/"},"geometry":{"type":"Point","coordinates":[22.2408268,60.2504935]}},{"type":"Feature","id":"node/385707266","properties":{"name":"Axo"},"geometry":{"type":"Point","coordinates":[22.3020462,60.3007933]}},{"type":"Feature","id":"node/388314961","properties":{"name":"Maj's"},"geometry":{"type":"Point","coordinates":[22.703354,63.6756621]}},{"type":"Feature","id":"node/388314962","properties":{"name":"Fiika Café & Interior"},"geometry":{"type":"Point","coordinates":[22.703828,63.6753667]}},{"type":"Feature","id":"node/388439815","properties":{"name":"Café Örtgården"},"geometry":{"type":"Point","coordinates":[22.7144866,63.6702797]}},{"type":"Feature","id":"node/391059417","properties":{"name":"Café & Restaurant Fäboda"},"geometry":{"type":"Point","coordinates":[22.547493,63.6689993]}},{"type":"Feature","id":"node/392271640","properties":{"name":"Café Qwensel","opening_hours":"Mo-Su  10:00-18:00","website":"https://www.cafeqwensel.fi/"},"geometry":{"type":"Point","coordinates":[22.2672814,60.4487539]}},{"type":"Feature","id":"node/393377050","properties":{"name":"Olokorjaamo"},"geometry":{"type":"Point","coordinates":[27.4540964,61.7128214]}},{"type":"Feature","id":"node/393632984","properties":{"name":"Cafe Kaapeli"},"geometry":{"type":"Point","coordinates":[25.9598523,62.2360198]}},{"type":"Feature","id":"node/394830180","properties":{"name":"Наш Питер"},"geometry":{"type":"Point","coordinates":[30.2972882,59.9523046]}},{"type":"Feature","id":"node/401627284","properties":{"name":"Динер холл","opening_hours":"Mo-Fr 10:00-17:00"},"geometry":{"type":"Point","coordinates":[30.3754386,59.9136572]}},{"type":"Feature","id":"node/401627386","properties":{"name":"Амилен"},"geometry":{"type":"Point","coordinates":[30.3768121,59.9140758]}},{"type":"Feature","id":"node/408734912","properties":{"name":"Seikkaileva Siili","website":"www.syotteenkylakauppa.fi/19"},"geometry":{"type":"Point","coordinates":[27.7009474,65.6475677]}},{"type":"Feature","id":"node/410581131","properties":{"name":"Baari Piriste"},"geometry":{"type":"Point","coordinates":[26.2595345,61.3615546]}},{"type":"Feature","id":"node/412197969","properties":{"name":"Luukin kahvila","opening_hours":"Mo-Su 10:00-17:00"},"geometry":{"type":"Point","coordinates":[24.6921911,60.3163309]}},{"type":"Feature","id":"node/413424191","properties":{"name":"Rantakeidas"},"geometry":{"type":"Point","coordinates":[25.6429373,63.3947308]}},{"type":"Feature","id":"node/415938559","properties":{"name":"Picnic","website":"https://www.picnic.fi/"},"geometry":{"type":"Point","coordinates":[24.9233551,60.1797009]}},{"type":"Feature","id":"node/417058162","properties":{"name":"Maatilapuodin kotikahvila","website":"https://maatilapuoti.fi/"},"geometry":{"type":"Point","coordinates":[24.4557268,60.083184]}},{"type":"Feature","id":"node/418597740","properties":{"name":"Love Coffee","website":"https://www.facebook.com/profile.php?id=100063041119279"},"geometry":{"type":"Point","coordinates":[23.8541369,61.4889694]}},{"type":"Feature","id":"node/423109566","properties":{"name":"Café Vanille","opening_hours":"\"June, 11-18. (Closed for Midsummer ). From Midsummer on open daily between 10-19\"; Sep 11:00-17:00; Oct-May Sa,Su 11:00-17:00; Oct-May Mo-Fr unknown \"maybe, especially on a nice weather :)\"","website":"https://www.cafevanille.fi/"},"geometry":{"type":"Point","coordinates":[24.9851339,60.1479701]}},{"type":"Feature","id":"node/425429462","properties":{"name":"Kumpulan maauimalan kahvio"},"geometry":{"type":"Point","coordinates":[24.9576788,60.2084035]}},{"type":"Feature","id":"node/425459736","properties":{"name":"Rantamakasiini","opening_hours":"\"Summer season\""},"geometry":{"type":"Point","coordinates":[26.7728592,61.642576]}},{"type":"Feature","id":"node/425459943","properties":{"name":"Kissakoski"},"geometry":{"type":"Point","coordinates":[26.7471391,61.624477]}},{"type":"Feature","id":"node/426917068","properties":{"name":"Tähtitornin kahvila"},"geometry":{"type":"Point","coordinates":[25.4681759,65.0173568]}},{"type":"Feature","id":"node/427092068","properties":{"name":"Васаби"},"geometry":{"type":"Point","coordinates":[30.4755116,59.9397604]}},{"type":"Feature","id":"node/427174239","properties":{},"geometry":{"type":"Point","coordinates":[20.2662433,60.0675572]}},{"type":"Feature","id":"node/428766816","properties":{"name":"Pullokiska"},"geometry":{"type":"Point","coordinates":[25.1604165,60.5116489]}},{"type":"Feature","id":"node/429324713","properties":{"name":"Furulundsgården","opening_hours":"Mo-Su 10:00-20:00"},"geometry":{"type":"Point","coordinates":[20.2345289,60.2124811]}},{"type":"Feature","id":"node/430015192","properties":{"name":"Neste Pedersöre","opening_hours":"Mo-Fr 06:00-23:00; Sa 08:00-23:00; Su 09:00-23:00","website":"https://nestepedersore.fi/"},"geometry":{"type":"Point","coordinates":[22.8569166,63.6326583]}},{"type":"Feature","id":"node/431100875","properties":{},"geometry":{"type":"Point","coordinates":[30.4925689,59.8963785]}},{"type":"Feature","id":"node/432501052","properties":{"name":"Барселона"},"geometry":{"type":"Point","coordinates":[30.4754165,59.9669899]}},{"type":"Feature","id":"node/434134021","properties":{"name":"Coffee House","opening_hours":"Mo-Fr 08:00-20:00; Sa 10:00-20:00; Su 11:00-20:00"},"geometry":{"type":"Point","coordinates":[25.7309654,66.5021087]}},{"type":"Feature","id":"node/436628128","properties":{"name":"Lossivahti"},"geometry":{"type":"Point","coordinates":[25.6705286,61.9938125]}},{"type":"Feature","id":"node/437327743","properties":{"name":"Paakarin pysäkki"},"geometry":{"type":"Point","coordinates":[25.7598423,63.9848639]}},{"type":"Feature","id":"node/439209246","properties":{},"geometry":{"type":"Point","coordinates":[30.5143178,59.8890128]}},{"type":"Feature","id":"node/440175136","properties":{"name":"Cafe Joutsen"},"geometry":{"type":"Point","coordinates":[22.2984648,60.4551793]}},{"type":"Feature","id":"node/440952975","properties":{"name":"Caffitella"},"geometry":{"type":"Point","coordinates":[25.8760027,62.2472517]}},{"type":"Feature","id":"node/441219731","properties":{"name":"Pajakahvila"},"geometry":{"type":"Point","coordinates":[26.4720192,60.5239761]}},{"type":"Feature","id":"node/441545756","properties":{},"geometry":{"type":"Point","coordinates":[23.5519674,60.1016427]}},{"type":"Feature","id":"node/441918700","properties":{"name":"Lossiranta","website":"http://www.lossiranta.com"},"geometry":{"type":"Point","coordinates":[22.9431121,60.3185315]}},{"type":"Feature","id":"node/441921767","properties":{"name":"Megacafé","opening_hours":"Mo-Fr 07:00-21:00; Sa 08:00-18:00; Su 12:00-18:00"},"geometry":{"type":"Point","coordinates":[24.6981966,62.2578974]}},{"type":"Feature","id":"node/441999286","properties":{"name":"kahvila Peukalo"},"geometry":{"type":"Point","coordinates":[25.2697822,62.703912]}},{"type":"Feature","id":"node/442059962","properties":{"name":"Kaffe Liiteri"},"geometry":{"type":"Point","coordinates":[24.8850016,60.1831369]}},{"type":"Feature","id":"node/442665303","properties":{"name":"Meretare"},"geometry":{"type":"Point","coordinates":[28.0293586,59.4577927]}},{"type":"Feature","id":"node/443835928","properties":{},"geometry":{"type":"Point","coordinates":[23.6273579,59.9392594]}},{"type":"Feature","id":"node/444776758","properties":{"name":"Wahaha"},"geometry":{"type":"Point","coordinates":[30.3642134,59.9304882]}},{"type":"Feature","id":"node/445381428","properties":{"name":"Harlekiini"},"geometry":{"type":"Point","coordinates":[24.951355,60.1818784]}},{"type":"Feature","id":"node/445388334","properties":{"name":"Горка"},"geometry":{"type":"Point","coordinates":[30.6889863,59.8975734]}},{"type":"Feature","id":"node/445996321","properties":{"name":"Teboil Jakobstad","opening_hours":"Mo-Fr 06:00-22:00;Sa-Su 08:00-22:00"},"geometry":{"type":"Point","coordinates":[22.717994,63.6787389]}},{"type":"Feature","id":"node/445996322","properties":{"name":"Neste Permossvängen","opening_hours":"Mo-Fr 06:30-21:00; Sa 08:00-21:00; Su 09:00-21:00","website":"https://www.neste.fi/"},"geometry":{"type":"Point","coordinates":[22.7314802,63.6791283]}},{"type":"Feature","id":"node/446038654","properties":{"name":"Cafe Porkkala","opening_hours":"Sa-Su 11:00-19:00","website":"http://cafeporkkala.fi/"},"geometry":{"type":"Point","coordinates":[24.4555412,60.0075518]}},{"type":"Feature","id":"node/446064734","properties":{},"geometry":{"type":"Point","coordinates":[30.3469291,59.9180664]}},{"type":"Feature","id":"node/446064736","properties":{"name":"Flat White"},"geometry":{"type":"Point","coordinates":[30.3464032,59.9183874]}},{"type":"Feature","id":"node/446760379","properties":{"name":"flät no 14","opening_hours":"Mo-Tu 09:00-17:00; We-Sa 09:00-23:00; Su 09:00-17:00","website":"https://www.flathelsinki.fi/"},"geometry":{"type":"Point","coordinates":[24.951961,60.1836377]}},{"type":"Feature","id":"node/446883699","properties":{"name":"Kulmakahvi 48"},"geometry":{"type":"Point","coordinates":[24.9266209,60.1640135]}},{"type":"Feature","id":"node/448894677","properties":{"name":"Cafe Biitsi"},"geometry":{"type":"Point","coordinates":[25.1596722,60.2026162]}},{"type":"Feature","id":"node/451730929","properties":{"name":"Biebmo","opening_hours":"Mo-Su 14:00-20:00"},"geometry":{"type":"Point","coordinates":[25.5112413,69.4711427]}},{"type":"Feature","id":"node/454729256","properties":{"name":"Shell Tamppari, Lapua","opening_hours":"24/7","website":"https://www.st1.fi/huoltoasemat?sub=lapua_tamppari"},"geometry":{"type":"Point","coordinates":[23.0506252,62.9597152]}},{"type":"Feature","id":"node/455022952","properties":{"name":"Kanavan Helmi"},"geometry":{"type":"Point","coordinates":[25.5364138,61.1766087]}},{"type":"Feature","id":"node/455033469","properties":{"name":"Tyyrpuuri","website":"https://www.facebook.com/tyyrpuuri/"},"geometry":{"type":"Point","coordinates":[26.0253882,61.2011649]}},{"type":"Feature","id":"node/455486258","properties":{"name":"Café Art","opening_hours":"Mo-Fr 10:00-19:00; Sa 10:00-18:00; Su 11:00-17:00","website":"https://www.cafeart.fi"},"geometry":{"type":"Point","coordinates":[22.271064,60.4494834]}},{"type":"Feature","id":"node/456832340","properties":{"name":"Siiskonen Kotileipomo","website":"http://www.kauraleipa.fi/"},"geometry":{"type":"Point","coordinates":[27.5883369,61.770054]}},{"type":"Feature","id":"node/457501045","properties":{"name":"Neulatammen kahvio"},"geometry":{"type":"Point","coordinates":[26.8324777,63.5932979]}},{"type":"Feature","id":"node/459391806","properties":{"name":"Musikcafé After Eight","website":"http://aftereight.fi/"},"geometry":{"type":"Point","coordinates":[22.7036115,63.6729197]}},{"type":"Feature","id":"node/459488020","properties":{},"geometry":{"type":"Point","coordinates":[24.7105222,60.2161042]}},{"type":"Feature","id":"node/460374494","properties":{"name":"Westmans","opening_hours":"Mo-Fr 11:00-20:00; Sa-Su 12:00-20:00"},"geometry":{"type":"Point","coordinates":[20.5039698,64.3489714]}},{"type":"Feature","id":"node/460478936","properties":{},"geometry":{"type":"Point","coordinates":[30.4406073,60.3179147]}},{"type":"Feature","id":"node/460576687","properties":{"name":"Jungman"},"geometry":{"type":"Point","coordinates":[21.3801569,62.2735485]}},{"type":"Feature","id":"node/461189596","properties":{"name":"Peders Aplagård","opening_hours":"10-18 every day","website":"http://www.aplagarden.ax"},"geometry":{"type":"Point","coordinates":[20.9697182,59.929545]}},{"type":"Feature","id":"node/461636218","properties":{"name":"Jäähallin kahvila"},"geometry":{"type":"Point","coordinates":[25.069742,60.2122435]}},{"type":"Feature","id":"node/461829030","properties":{"name":"Kirkonvarkaus (summer)"},"geometry":{"type":"Point","coordinates":[27.2998139,61.6650487]}},{"type":"Feature","id":"node/462752390","properties":{"name":"Robert's Coffee","opening_hours":"Mo-Fr 08:00-20:00; Sa 10:00-18:00","website":"https://www.robertscoffee.com/cafe/arabian-kauppakeskus/"},"geometry":{"type":"Point","coordinates":[24.9683994,60.2026943]}},{"type":"Feature","id":"node/464485513","properties":{"name":"Kahvitupa Laurentius"},"geometry":{"type":"Point","coordinates":[24.983784,60.2836546]}},{"type":"Feature","id":"node/464729845","properties":{"name":"Pallokentän kahvio"},"geometry":{"type":"Point","coordinates":[24.9254015,60.1861961]}},{"type":"Feature","id":"node/464787382","properties":{"name":"Столовая"},"geometry":{"type":"Point","coordinates":[29.4895617,60.5413627]}},{"type":"Feature","id":"node/465728029","properties":{},"geometry":{"type":"Point","coordinates":[22.0169263,60.4695521]}},{"type":"Feature","id":"node/465732245","properties":{"name":"Cafe Amandis","url":"http://www.hotelamandis.com/kahvila.php"},"geometry":{"type":"Point","coordinates":[22.0153641,60.4703221]}},{"type":"Feature","id":"node/465734006","properties":{"name":"Cafe Santala"},"geometry":{"type":"Point","coordinates":[22.014306,60.470543]}},{"type":"Feature","id":"node/466976159","properties":{},"geometry":{"type":"Point","coordinates":[22.0043016,60.474072]}},{"type":"Feature","id":"node/466978923","properties":{"name":"Picnic"},"geometry":{"type":"Point","coordinates":[22.0049229,60.4727658]}},{"type":"Feature","id":"node/467002736","properties":{"name":"Naantalin aurinkoinen"},"geometry":{"type":"Point","coordinates":[22.0242243,60.4672123]}},{"type":"Feature","id":"node/467126271","properties":{"name":"Cafe Hugo","url":"www.cafehugo.fi"},"geometry":{"type":"Point","coordinates":[24.7445322,60.3857271]}},{"type":"Feature","id":"node/469107445","properties":{},"geometry":{"type":"Point","coordinates":[24.6061521,60.2316266]}},{"type":"Feature","id":"node/469179549","properties":{"name":"Koto","website":"www.kotokahvila.fi"},"geometry":{"type":"Point","coordinates":[24.7559719,60.3786033]}},{"type":"Feature","id":"node/469179646","properties":{"name":"Cafe Viiri","opening_hours":"Mo-Fr 10:00-19:00; Sa 10:00-16:00; Su off"},"geometry":{"type":"Point","coordinates":[24.7588241,60.3776125]}},{"type":"Feature","id":"node/469832491","properties":{"name":"Uittotupa (Miekankoski)","opening_hours":"\"Summer season\"","url":"http://www.miekankoskenkahvila.com/","website":"http://www.miekankoskenkahvila.com/"},"geometry":{"type":"Point","coordinates":[26.6692667,61.42202]}},{"type":"Feature","id":"node/470193043","properties":{},"geometry":{"type":"Point","coordinates":[23.6676077,68.3951911]}},{"type":"Feature","id":"node/470938642","properties":{"name":"Strandcafe"},"geometry":{"type":"Point","coordinates":[20.6778884,67.1290528]}},{"type":"Feature","id":"node/470938689","properties":{"name":"Nyfiket"},"geometry":{"type":"Point","coordinates":[20.6657721,67.1329818]}},{"type":"Feature","id":"node/470949135","properties":{"name":"Kitajaur VildmarksCafé","website":"http://www.kitajaur.se"},"geometry":{"type":"Point","coordinates":[19.946948,66.179866]}},{"type":"Feature","id":"node/471363136","properties":{"name":"Xoco's","website":"http://www.moberg.fi/"},"geometry":{"type":"Point","coordinates":[22.2715446,60.4577061]}},{"type":"Feature","id":"node/471788613","properties":{"name":"Kyläkaupan kahvio"},"geometry":{"type":"Point","coordinates":[24.3525859,61.2586987]}},{"type":"Feature","id":"node/471788921","properties":{"name":"Suttisen kahvio"},"geometry":{"type":"Point","coordinates":[24.3540236,61.2588071]}},{"type":"Feature","id":"node/471829182","properties":{"name":"Robert's Coffee","opening_hours":"Mo-Fr 08:30-19:00; Sa 10:00-17:00"},"geometry":{"type":"Point","coordinates":[25.6570638,60.9828568]}},{"type":"Feature","id":"node/471983332","properties":{"name":"Linjalan kahvio"},"geometry":{"type":"Point","coordinates":[24.8571481,60.6286205]}},{"type":"Feature","id":"node/471987951","properties":{"name":"Janessa"},"geometry":{"type":"Point","coordinates":[24.8573379,60.6313898]}},{"type":"Feature","id":"node/472358850","properties":{"name":"Westersin Puutarha","url":"http://www.westers.fi/"},"geometry":{"type":"Point","coordinates":[22.8757762,60.2385244]}},{"type":"Feature","id":"node/473048147","properties":{"name":"Cafe Antonius"},"geometry":{"type":"Point","coordinates":[22.01636,60.4686615]}},{"type":"Feature","id":"node/474721991","properties":{},"geometry":{"type":"Point","coordinates":[21.7842353,61.4897648]}},{"type":"Feature","id":"node/477199628","properties":{"name":"Cafe Lahti","website":"https://windyday.fi/lahti/"},"geometry":{"type":"Point","coordinates":[24.6598014,60.146584]}},{"type":"Feature","id":"node/477270631","properties":{"name":"Café Sose","opening_hours":"Mo-Fr 09:00-15:30, Sa,Su 09:00-15:00","website":"https://facebook.com/"},"geometry":{"type":"Point","coordinates":[24.9571361,60.2131593]}},{"type":"Feature","id":"node/477877422","properties":{"name":"Lankosken Kahvimylly","website":"http://www.lankoski.com/kahvimylly"},"geometry":{"type":"Point","coordinates":[21.6588426,61.81215]}},{"type":"Feature","id":"node/479830756","properties":{"name":"Oksi","opening_hours":"Tu-Fr 10:00-17:00; Sa 10:00-16:00","website":"https://www.kahvilaoksi.fi"},"geometry":{"type":"Point","coordinates":[22.250117,60.4459913]}},{"type":"Feature","id":"node/480116617","properties":{},"geometry":{"type":"Point","coordinates":[29.6003252,60.2581738]}},{"type":"Feature","id":"node/485662842","properties":{"name":"Cafe Solo"},"geometry":{"type":"Point","coordinates":[21.6217525,63.0975548]}},{"type":"Feature","id":"node/486167328","properties":{"name":"Lilla Entrén"},"geometry":{"type":"Point","coordinates":[21.6173633,63.0946391]}},{"type":"Feature","id":"node/486235888","properties":{"name":"Aschan Coffee & Deli"},"geometry":{"type":"Point","coordinates":[21.6575063,63.1120498]}},{"type":"Feature","id":"node/486709733","properties":{"opening_hours":"08:00-23:00","website":"https://coffeeshopcompany.ru/"},"geometry":{"type":"Point","coordinates":[30.3220903,59.8487909]}},{"type":"Feature","id":"node/487245985","properties":{"name":"Пирога","opening_hours":"Mo-Su 10:00-22:00"},"geometry":{"type":"Point","coordinates":[30.340207,59.97277]}},{"type":"Feature","id":"node/496024244","properties":{},"geometry":{"type":"Point","coordinates":[22.0839355,65.6703927]}},{"type":"Feature","id":"node/497260701","properties":{"name":"Storknabben"},"geometry":{"type":"Point","coordinates":[19.8583027,66.5882557]}},{"type":"Feature","id":"node/510118793","properties":{"name":"Riihi"},"geometry":{"type":"Point","coordinates":[24.7839722,67.7910369]}},{"type":"Feature","id":"node/515643555","properties":{"name":"Marian konditoria","opening_hours":"Mo-Fr 08:00-18:00; Sa 10:00-15:00; Su closed"},"geometry":{"type":"Point","coordinates":[24.8493301,60.2388762]}},{"type":"Feature","id":"node/515868603","properties":{"name":"Caffé Locale","opening_hours":"Tu-Fr 09:00-16:00, Fr 10:00-15:00"},"geometry":{"type":"Point","coordinates":[21.7978217,61.4854001]}},{"type":"Feature","id":"node/522099805","properties":{"name":"Piazza Cafe","opening_hours":"Mo-Fr 09:00-18:00, Sa 09:00-16:00","website":"http://piazzacafe.fi/"},"geometry":{"type":"Point","coordinates":[25.7173691,62.2881133]}},{"type":"Feature","id":"node/522809382","properties":{"name":"Café Storören"},"geometry":{"type":"Point","coordinates":[25.2372744,60.2591157]}},{"type":"Feature","id":"node/525359854","properties":{"name":"Столовая на Почтамтской","opening_hours":"09:00-21:00"},"geometry":{"type":"Point","coordinates":[30.3042209,59.9326592]}},{"type":"Feature","id":"node/525360782","properties":{"name":"Папарацци","opening_hours":"11:00-23:00"},"geometry":{"type":"Point","coordinates":[30.3029943,59.9322913]}},{"type":"Feature","id":"node/527747111","properties":{},"geometry":{"type":"Point","coordinates":[30.3593804,59.9863292]}},{"type":"Feature","id":"node/529104450","properties":{"name":"Manuela"},"geometry":{"type":"Point","coordinates":[22.2408987,60.43849]}},{"type":"Feature","id":"node/529409691","properties":{},"geometry":{"type":"Point","coordinates":[30.4201406,59.9054142]}},{"type":"Feature","id":"node/529927323","properties":{"name":"Disa's fish"},"geometry":{"type":"Point","coordinates":[28.5367827,60.9630802]}},{"type":"Feature","id":"node/533711728","properties":{"name":"Kahvila Runo","opening_hours":"Mo-Sa 09:00-20:00; Su 10:00-20:00","url":"http://kahvilaruno.fi/"},"geometry":{"type":"Point","coordinates":[23.7673319,61.5010818]}},{"type":"Feature","id":"node/535085527","properties":{"name":"SIS Deli + Café","opening_hours":"Mo-Fr 07:00-18:00; Sa-Su 09:00-16:00","website":"https://sisdeli.fi/"},"geometry":{"type":"Point","coordinates":[24.9404385,60.1604131]}},{"type":"Feature","id":"node/538080470","properties":{},"geometry":{"type":"Point","coordinates":[30.2471482,60.0081427]}},{"type":"Feature","id":"node/540060972","properties":{"name":"Pyhäjärven helmi"},"geometry":{"type":"Point","coordinates":[24.1906621,60.5364715]}},{"type":"Feature","id":"node/540726894","properties":{},"geometry":{"type":"Point","coordinates":[30.2613188,60.0053331]}},{"type":"Feature","id":"node/541406230","properties":{"name":"Север-Метрополь","opening_hours":"09:00-21:00","website":"https://sever-metropol.ru/"},"geometry":{"type":"Point","coordinates":[30.3118369,59.9567579]}},{"type":"Feature","id":"node/549715923","properties":{"name":"Kompakan kauppa","opening_hours":"Mo-Fr 08:30-17:00; Sa 8:30-13:00"},"geometry":{"type":"Point","coordinates":[29.8535378,62.330161]}},{"type":"Feature","id":"node/551306071","properties":{"name":"Nettikahvila"},"geometry":{"type":"Point","coordinates":[25.259993,62.7044476]}},{"type":"Feature","id":"node/551336927","properties":{"name":"Kauttuan Kipsa"},"geometry":{"type":"Point","coordinates":[22.1615119,61.1154097]}},{"type":"Feature","id":"node/558932360","properties":{"name":"Kukka-kahvila","opening_hours":"Mo-Fr 08:30-16:00; Sa,Su off","website":"http://www.kukka-kahvila.fi/"},"geometry":{"type":"Point","coordinates":[26.7741061,61.6417522]}},{"type":"Feature","id":"node/561157757","properties":{},"geometry":{"type":"Point","coordinates":[22.2790846,60.4547428]}},{"type":"Feature","id":"node/561243464","properties":{"name":"Hevi's deli & café","opening_hours":"Mo-Th 11:00-19:00; Fr-Sa 11:00-20:00","website":"http://www.hevisdelicafe.fi/"},"geometry":{"type":"Point","coordinates":[24.1477758,65.8452452]}},{"type":"Feature","id":"node/566713983","properties":{"name":"Вояж","opening_hours":"24/7"},"geometry":{"type":"Point","coordinates":[30.3233746,59.8490882]}},{"type":"Feature","id":"node/569674575","properties":{"name":"Рыжий кот","opening_hours":"Mo-Fr 09:00-21:00; Sa-Su 10:00-21:00"},"geometry":{"type":"Point","coordinates":[30.3281716,59.9575794]}},{"type":"Feature","id":"node/571202792","properties":{},"geometry":{"type":"Point","coordinates":[30.3308092,59.8468153]}},{"type":"Feature","id":"node/574338355","properties":{"name":"Euran Pallon kioski"},"geometry":{"type":"Point","coordinates":[22.1619589,61.1160975]}},{"type":"Feature","id":"node/577204009","properties":{"name":"Haapasen Kotileipomo","opening_hours":"Mo-Fr 07:00-17:00; Sa 09:00-15:00","website":"https://www.haapasen.fi/"},"geometry":{"type":"Point","coordinates":[27.0775991,61.6442059]}},{"type":"Feature","id":"node/577830123","properties":{"name":"Kesäkahvila Torin ranta"},"geometry":{"type":"Point","coordinates":[26.4803831,61.5047734]}},{"type":"Feature","id":"node/579868588","properties":{"name":"Лев","opening_hours":"Mo-Su 12:00-24:00"},"geometry":{"type":"Point","coordinates":[30.4841741,59.884084]}},{"type":"Feature","id":"node/580804661","properties":{},"geometry":{"type":"Point","coordinates":[26.6405851,61.990573]}},{"type":"Feature","id":"node/580813220","properties":{"name":"Reissupannu","website":"www.facebook.com/Kahvila-Reissupannu-613807872052168/"},"geometry":{"type":"Point","coordinates":[26.6619702,62.0026614]}},{"type":"Feature","id":"node/581008999","properties":{"name":"Yes kafe","opening_hours":"Summer (closed winter)"},"geometry":{"type":"Point","coordinates":[28.0430542,59.4639883]}},{"type":"Feature","id":"node/582993477","properties":{},"geometry":{"type":"Point","coordinates":[23.4952786,67.1892439]}},{"type":"Feature","id":"node/590585938","properties":{"name":"Rautatieasema, Mikkeli"},"geometry":{"type":"Point","coordinates":[27.2775862,61.6877627]}},{"type":"Feature","id":"node/590797229","properties":{"name":"Mikkelin matkakeskus"},"geometry":{"type":"Point","coordinates":[27.2769115,61.6870438]}},{"type":"Feature","id":"node/592561408","properties":{"name":"Kirja cafe"},"geometry":{"type":"Point","coordinates":[27.2729846,61.6866831]}},{"type":"Feature","id":"node/593863785","properties":{"name":"Tommolan salmi"},"geometry":{"type":"Point","coordinates":[27.1518748,61.2710022]}},{"type":"Feature","id":"node/598447355","properties":{"name":"Karkiainen"},"geometry":{"type":"Point","coordinates":[24.144131,65.8442294]}},{"type":"Feature","id":"node/598447357","properties":{"name":"Karkiainen"},"geometry":{"type":"Point","coordinates":[24.1885494,65.8440608]}},{"type":"Feature","id":"node/598598635","properties":{"name":"Колмас Карелия","opening_hours":"24/7"},"geometry":{"type":"Point","coordinates":[30.6802564,62.1605774]}},{"type":"Feature","id":"node/598660703","properties":{"name":"Shell Express Mikkeli Visulahti","website":"http://www.cafevisulahti.fi/"},"geometry":{"type":"Point","coordinates":[27.3545462,61.7038511]}},{"type":"Feature","id":"node/599175498","properties":{"name":"Mierolan Silta"},"geometry":{"type":"Point","coordinates":[24.3879534,61.063495]}},{"type":"Feature","id":"node/599207044","properties":{"name":"Viihde-kahvila Lappelill"},"geometry":{"type":"Point","coordinates":[24.1434025,65.844442]}},{"type":"Feature","id":"node/599344228","properties":{"name":"Juva"},"geometry":{"type":"Point","coordinates":[27.8563484,61.8974813]}},{"type":"Feature","id":"node/599729426","properties":{"name":"Пирожковая"},"geometry":{"type":"Point","coordinates":[30.0742313,59.5746487]}},{"type":"Feature","id":"node/600082953","properties":{"name":"Tiedekahvila","opening_hours":"Mo-Th 08:30-18:00; Fr 08:30-15:00","url":"http://www.tiedekahvila.fi/"},"geometry":{"type":"Point","coordinates":[24.957661,60.1708694]}},{"type":"Feature","id":"node/600082966","properties":{"name":"Chjoko","opening_hours":"Mo-Fr 12:00-18:00; Sa 12:00-16:00","url":"http://www.chjoko.com/","website":"http://www.chjoko.com"},"geometry":{"type":"Point","coordinates":[24.958016,60.1743261]}},{"type":"Feature","id":"node/600082972","properties":{"name":"Encanto cafe","opening_hours":"Mo-Fri 09:00-16:00 Sat 10:00-15:00"},"geometry":{"type":"Point","coordinates":[24.9584438,60.173442]}},{"type":"Feature","id":"node/600091160","properties":{"name":"Espresso edge"},"geometry":{"type":"Point","coordinates":[24.9516823,60.1741439]}},{"type":"Feature","id":"node/600290643","properties":{"name":"Ramin konditoria","opening_hours":"Mo-Fr 09:00-18:00; Sa 09:00-17:00","website":"https://www.raminkonditoria.fi/"},"geometry":{"type":"Point","coordinates":[27.2717654,61.6888517]}},{"type":"Feature","id":"node/600290650","properties":{"name":"Sitruunapisara"},"geometry":{"type":"Point","coordinates":[27.2708536,61.6891321]}},{"type":"Feature","id":"node/600392934","properties":{"name":"Lyhtykahvila","website":"http://yllaksenykkoscaravan.fi/kahvila/"},"geometry":{"type":"Point","coordinates":[24.1430509,67.6071521]}},{"type":"Feature","id":"node/600394446","properties":{"name":"Picnic","opening_hours":"Mo-Fr 7:00-18:00; Sa 9:30-16:00; PH off","website":"https://www.picnic.fi/kahvilat/?pid=1&lid=10"},"geometry":{"type":"Point","coordinates":[24.9475818,60.1659889]}},{"type":"Feature","id":"node/600394450","properties":{"name":"Aschan Cafe Jugend","website":"http://www.cafejugend.fi"},"geometry":{"type":"Point","coordinates":[24.9504496,60.1679711]}},{"type":"Feature","id":"node/600401816","properties":{"name":"Cafe & Bar Routa","opening_hours":"Mo-Sa 09:00-18:00; Su 10:00-17:00","website":"https://routa.net/"},"geometry":{"type":"Point","coordinates":[24.154271,67.605388]}},{"type":"Feature","id":"node/600423099","properties":{"name":"Pitoporras","opening_hours":"Mo-Fr 07:30-17:00; Sa 09:00-14:00","website":"http://www.pitoporras.fi/"},"geometry":{"type":"Point","coordinates":[24.1496709,65.8462112]}},{"type":"Feature","id":"node/601379355","properties":{"name":"Kulturkaféet","opening_hours":"Mo-Th 09:00-19:00;Fr 09:00-18:00;Sa 11:00-16:00;Su 12:00-16:00"},"geometry":{"type":"Point","coordinates":[22.1517223,65.5854398]}},{"type":"Feature","id":"node/602640493","properties":{"name":"Presso"},"geometry":{"type":"Point","coordinates":[27.6325515,62.8869973]}},{"type":"Feature","id":"node/603139537","properties":{"name":"Uuttusuon taukomaja","website":"https://www.ruka.fi/uuttusuon-taukomaja"},"geometry":{"type":"Point","coordinates":[29.1904999,66.1604257]}},{"type":"Feature","id":"node/603385561","properties":{"name":"Fjärdens Kaffestuga","website":"http://www.netikka.net/kahvitupa/"},"geometry":{"type":"Point","coordinates":[22.3691944,63.2912979]}},{"type":"Feature","id":"node/605509126","properties":{"name":"Neste Ristiina","website":"https://www.neste.fi/asema/neste-ristiina"},"geometry":{"type":"Point","coordinates":[27.2632248,61.4530207]}},{"type":"Feature","id":"node/606996900","properties":{"name":"Café Strindberg","website":"http://www.strindberg.fi/"},"geometry":{"type":"Point","coordinates":[24.9460908,60.1679074]}},{"type":"Feature","id":"node/606996903","properties":{"name":"Kämp Brasserie & Bar","website":"https://www.brasseriekamp.fi/"},"geometry":{"type":"Point","coordinates":[24.9473194,60.1679182]}},{"type":"Feature","id":"node/606996912","properties":{"name":"Karl Fazer Café","website":"http://www.fazercafe.fi/"},"geometry":{"type":"Point","coordinates":[24.9476859,60.1685053]}},{"type":"Feature","id":"node/610391715","properties":{"name":"Alppilan Kahvi"},"geometry":{"type":"Point","coordinates":[24.9444844,60.1924788]}},{"type":"Feature","id":"node/610920410","properties":{"name":"Kahvila-Konditoria Mari","opening_hours":"Mo-Fr 07:00-16:00"},"geometry":{"type":"Point","coordinates":[23.7944875,61.4831028]}},{"type":"Feature","id":"node/612401227","properties":{"name":"Arnolds"},"geometry":{"type":"Point","coordinates":[24.144202,65.8434084]}},{"type":"Feature","id":"node/613519955","properties":{"name":"Picnic"},"geometry":{"type":"Point","coordinates":[24.1436233,65.842558]}},{"type":"Feature","id":"node/614232799","properties":{"name":"Kultarannan kioski"},"geometry":{"type":"Point","coordinates":[22.0077409,60.4602684]}},{"type":"Feature","id":"node/614546255","properties":{"name":"Skrövån"},"geometry":{"type":"Point","coordinates":[21.8138535,66.7995908]}},{"type":"Feature","id":"node/614703759","properties":{"name":"Pikku Café"},"geometry":{"type":"Point","coordinates":[24.9922026,60.2461838]}},{"type":"Feature","id":"node/614769144","properties":{"name":"HH Café","opening_hours":"Mo-Fr 09:00-21:00;Sa 09:00-16:00"},"geometry":{"type":"Point","coordinates":[22.7021506,63.675745]}},{"type":"Feature","id":"node/615217033","properties":{"name":"Cafe Yrjö"},"geometry":{"type":"Point","coordinates":[24.9391341,60.1683078]}},{"type":"Feature","id":"node/615308444","properties":{"name":"Myllynpirtti","website":"http://www.kukkolankoski.fi/majoitus-ja-ruoka/ruoka/myllynpirtti.html"},"geometry":{"type":"Point","coordinates":[24.0445362,65.9634568]}},{"type":"Feature","id":"node/618594836","properties":{"opening_hours":"Mo-Th 08:00-16:00; Fr 08:00-14:30"},"geometry":{"type":"Point","coordinates":[24.0692142,65.8286235]}},{"type":"Feature","id":"node/618848729","properties":{"name":"St1 Rantakylä","opening_hours":"Mo-Fr 06:30-20:00; Sa 09:00-20:00; Su 12:00-20:00","website":"http://www.st1rantakyla.fi/"},"geometry":{"type":"Point","coordinates":[27.2003362,61.6761305]}},{"type":"Feature","id":"node/619074550","properties":{},"geometry":{"type":"Point","coordinates":[22.528906,63.5217753]}},{"type":"Feature","id":"node/619076767","properties":{"name":"Café Brostugan"},"geometry":{"type":"Point","coordinates":[22.5234596,63.5225968]}},{"type":"Feature","id":"node/619719676","properties":{"name":"Vilttorpet"},"geometry":{"type":"Point","coordinates":[22.723922,63.563419]}},{"type":"Feature","id":"node/621111597","properties":{"name":"Pärus-Cafe"},"geometry":{"type":"Point","coordinates":[21.5694216,62.2417309]}},{"type":"Feature","id":"node/621153210","properties":{"name":"Karansalmen kylätalo"},"geometry":{"type":"Point","coordinates":[24.2098171,62.3501396]}},{"type":"Feature","id":"node/626947393","properties":{"name":"Hirsibaari"},"geometry":{"type":"Point","coordinates":[25.1423504,62.0798141]}},{"type":"Feature","id":"node/630730661","properties":{"name":"Vaarin kahvila","opening_hours":"Mo-Fr 07:00-16:00; Sa 07:00-13:00"},"geometry":{"type":"Point","coordinates":[25.6578093,60.9835806]}},{"type":"Feature","id":"node/632221380","properties":{"name":"K-Supermarket Eurajoen Portti"},"geometry":{"type":"Point","coordinates":[21.7277435,61.2026223]}},{"type":"Feature","id":"node/632603094","properties":{"name":"Neste Vihantasalmi","website":"https://www.neste.fi/hakuasema.aspx?id=7046"},"geometry":{"type":"Point","coordinates":[26.6798097,61.4414295]}},{"type":"Feature","id":"node/632713827","properties":{"name":"Kaneliässä","opening_hours":"Mo-Fr 04:30-15:00; Sa 07:00-14:00; Su 10:00-14:00"},"geometry":{"type":"Point","coordinates":[26.882137,61.417074]}},{"type":"Feature","id":"node/632713898","properties":{"name":"Teboil"},"geometry":{"type":"Point","coordinates":[26.8907315,61.4197839]}},{"type":"Feature","id":"node/632713905","properties":{"name":"St1 Mäntyharju","opening_hours":"Mo-Fr 07:00-18:00; Sa 08:00-14:00; Su off","website":"http://www.partonen.fi/"},"geometry":{"type":"Point","coordinates":[26.8916769,61.4208189]}},{"type":"Feature","id":"node/633147736","properties":{"name":"Арт-Буфет","opening_hours":"10:00-22:00","website":"http://artbufet.com/"},"geometry":{"type":"Point","coordinates":[30.3110817,59.933103]}},{"type":"Feature","id":"node/634340280","properties":{"name":"Coffee House","opening_hours":"Mo-Fr 08:30-20:00; Sa 09:00-20:00; Su 11:00-18:00","website":"https://raflaamo.fi/en/kuopio/coffee-house-kuopio"},"geometry":{"type":"Point","coordinates":[27.676037,62.892312]}},{"type":"Feature","id":"node/638315197","properties":{"name":"Pro-Sushi","opening_hours":"Mo-Su,PH 12:00-24:00"},"geometry":{"type":"Point","coordinates":[30.3140789,59.851476]}},{"type":"Feature","id":"node/638713977","properties":{"name":"Latupirtti","opening_hours":"10-16 (winter time)","website":"https://www.suomenlatu.fi/mikkelinlatu/?sivu=13"},"geometry":{"type":"Point","coordinates":[27.1013823,61.6739438]}},{"type":"Feature","id":"node/641900674","properties":{"name":"Ажур"},"geometry":{"type":"Point","coordinates":[30.4753903,59.8826794]}},{"type":"Feature","id":"node/648218677","properties":{"name":"Kahvila Taikalamppu","website":"https://www.facebook.com/taikalamppu"},"geometry":{"type":"Point","coordinates":[24.9550781,60.184469]}},{"type":"Feature","id":"node/648233320","properties":{"name":"Velhonkota","opening_hours":"Fr-We 10:00-15:00; Th 10:00-20:00","website":"http://www.velhonkota.fi/"},"geometry":{"type":"Point","coordinates":[24.0888959,67.5814494]}},{"type":"Feature","id":"node/648234162","properties":{"name":"Kesängin Keidas"},"geometry":{"type":"Point","coordinates":[24.2566107,67.5981832]}},{"type":"Feature","id":"node/648487798","properties":{"name":"Шоколадница","opening_hours":"Mo-Su 08:00-23:00","url":"http://www.coffeehouse.ru/"},"geometry":{"type":"Point","coordinates":[30.3217961,59.8558488]}},{"type":"Feature","id":"node/648525104","properties":{"name":"Picnic","opening_hours":"Mo-Fr 7:00-19:00; Sa 10:00-16:00","website":"https://www.picnic.fi/lahin-picnic#Helsinki_Yrjonkatu_4"},"geometry":{"type":"Point","coordinates":[24.9443503,60.1638567]}},{"type":"Feature","id":"node/649226110","properties":{},"geometry":{"type":"Point","coordinates":[30.5906595,59.7493564]}},{"type":"Feature","id":"node/651273559","properties":{"name":"Kieppari"},"geometry":{"type":"Point","coordinates":[29.3565123,61.4343463]}},{"type":"Feature","id":"node/651886753","properties":{"name":"Aurinkotupa"},"geometry":{"type":"Point","coordinates":[24.2402782,67.5242648]}},{"type":"Feature","id":"node/652383850","properties":{"name":"Barraquito"},"geometry":{"type":"Point","coordinates":[30.3263577,59.9364198]}},{"type":"Feature","id":"node/652720891","properties":{"name":"Navettagalleria","opening_hours":"Mo-Su 10:00-17:00","website":"https://karilantila.fi/"},"geometry":{"type":"Point","coordinates":[24.1774149,67.6254111]}},{"type":"Feature","id":"node/654080540","properties":{"name":"Деликатес"},"geometry":{"type":"Point","coordinates":[29.0913784,59.9071763]}},{"type":"Feature","id":"node/654105840","properties":{"name":"Север-Метрополь","opening_hours":"07:00-23:00","website":"https://sever-metropol.ru/"},"geometry":{"type":"Point","coordinates":[30.3668044,59.930377]}},{"type":"Feature","id":"node/654914046","properties":{"name":"Вкус победы"},"geometry":{"type":"Point","coordinates":[29.0748342,59.8967078]}},{"type":"Feature","id":"node/659420828","properties":{"name":"Счастье","opening_hours":"Mo-Th 08:00-23:00; Fr 08:00-24:00; Sa 09:00-24:00; Su 09:00-23:00","website":"http://www.schastye.com/"},"geometry":{"type":"Point","coordinates":[30.3099879,59.964664]}},{"type":"Feature","id":"node/662432999","properties":{"name":"Муравейник"},"geometry":{"type":"Point","coordinates":[29.9738778,60.104502]}},{"type":"Feature","id":"node/663238615","properties":{"name":"Livokas","website":"https://sites.google.com/site/livokasry/alkuun"},"geometry":{"type":"Point","coordinates":[26.9486226,65.5449618]}},{"type":"Feature","id":"node/663382841","properties":{"name":"Mässkärs Naturstation"},"geometry":{"type":"Point","coordinates":[22.583981,63.728315]}},{"type":"Feature","id":"node/664754935","properties":{"name":"Петергофское","opening_hours":"Su-Th 11:00-23:00; Fr-Sa 12:00-00:00"},"geometry":{"type":"Point","coordinates":[29.8940542,59.8818583]}},{"type":"Feature","id":"node/665741496","properties":{"name":"Kaneli","opening_hours":"Mo-Fr 08:45-15:30"},"geometry":{"type":"Point","coordinates":[24.1383439,65.8518801]}},{"type":"Feature","id":"node/669043486","properties":{"name":"Британские пекарни","opening_hours":"Mo-Fr 08:00-22:00; Sa-Su 09:00-22:00"},"geometry":{"type":"Point","coordinates":[30.4107178,59.9294903]}},{"type":"Feature","id":"node/670301510","properties":{"name":"Tiiristupa","opening_hours":"Winter weekends","website":"https://tiirismaanlatu.sporttisaitti.com/tiiristupa2/"},"geometry":{"type":"Point","coordinates":[25.5336503,61.0000253]}},{"type":"Feature","id":"node/671506908","properties":{"name":"Tunturikeskus Kiilopää","website":"https://www.kiilopaa.fi/syo-hyvin/ravintola-kiilopaa.html"},"geometry":{"type":"Point","coordinates":[27.4617917,68.3469315]}},{"type":"Feature","id":"node/672477766","properties":{"name":"Kahvila Pokkari"},"geometry":{"type":"Point","coordinates":[25.1438424,60.2086171]}},{"type":"Feature","id":"node/672919034","properties":{"name":"Arvonen"},"geometry":{"type":"Point","coordinates":[22.3216469,60.4465773]}},{"type":"Feature","id":"node/673957203","properties":{"name":"Buona Cucina","opening_hours":"24/7"},"geometry":{"type":"Point","coordinates":[30.2567395,59.8522938]}},{"type":"Feature","id":"node/677630008","properties":{"name":"Kioski-kahvila Sokeritoppa"},"geometry":{"type":"Point","coordinates":[24.8125762,60.2160728]}},{"type":"Feature","id":"node/677780611","properties":{"name":"Венера"},"geometry":{"type":"Point","coordinates":[30.3986067,59.8282072]}},{"type":"Feature","id":"node/677853429","properties":{"name":"Ädnamvaarastugan","opening_hours":"Feb-Apr","website":"http://www.friluftsskolan.se/"},"geometry":{"type":"Point","coordinates":[20.0480001,67.8566548]}},{"type":"Feature","id":"node/679133390","properties":{"name":"Айс-Град"},"geometry":{"type":"Point","coordinates":[30.4382077,59.88379]}},{"type":"Feature","id":"node/679209974","properties":{"name":"Amurin Helmi","opening_hours":"Mo-Fr 07:00-18:00, Sa-Su 08:00-18:00","website":"http://www.museokortteli.fi/etusivu/kahvila-amurin-helmi/"},"geometry":{"type":"Point","coordinates":[23.7430122,61.499319]}},{"type":"Feature","id":"node/681310080","properties":{"name":"Телега","opening_hours":"Su-Th 11:00-23:00; Fr,Sa 11:00-24:00"},"geometry":{"type":"Point","coordinates":[30.2514053,60.0226947]}},{"type":"Feature","id":"node/684148038","properties":{"name":"Гранд-Кафе"},"geometry":{"type":"Point","coordinates":[30.2988294,59.8395118]}},{"type":"Feature","id":"node/687777051","properties":{},"geometry":{"type":"Point","coordinates":[27.3828746,68.3276436]}},{"type":"Feature","id":"node/695116002","properties":{},"geometry":{"type":"Point","coordinates":[27.0971593,62.3315375]}},{"type":"Feature","id":"node/697338873","properties":{"name":"Голландская Кухня","opening_hours":"Mo-Su 11:00-23:00","website":"http://www.gollandkitchen.ru"},"geometry":{"type":"Point","coordinates":[29.7692344,59.9880597]}},{"type":"Feature","id":"node/698797006","properties":{"name":"Take five"},"geometry":{"type":"Point","coordinates":[30.2482459,60.01847]}},{"type":"Feature","id":"node/700156087","properties":{},"geometry":{"type":"Point","coordinates":[26.7494618,63.230492]}},{"type":"Feature","id":"node/701456487","properties":{"name":"ABC Hirvaskangas","opening_hours":"24/7","website":"https://www.abcasemat.fi/fi/asemat/abc-hirvaskangas-aanekoski-542466446"},"geometry":{"type":"Point","coordinates":[25.6897785,62.5175167]}},{"type":"Feature","id":"node/703477270","properties":{"name":"Naperotori","website":"http://www.naperotori.fi/"},"geometry":{"type":"Point","coordinates":[25.0310799,60.3095072]}},{"type":"Feature","id":"node/704749682","properties":{"name":"Kesäkahvila"},"geometry":{"type":"Point","coordinates":[26.8886528,60.490368]}},{"type":"Feature","id":"node/707983309","properties":{"name":"Brasserie L'Amour","website":"https://www.lamour.fi/"},"geometry":{"type":"Point","coordinates":[25.6596873,60.3940927]}},{"type":"Feature","id":"node/712052566","properties":{"name":"Фартук","opening_hours":"10:00-03:00"},"geometry":{"type":"Point","coordinates":[30.343701,59.9290373]}},{"type":"Feature","id":"node/712160539","properties":{"name":"Coffeeshop Company"},"geometry":{"type":"Point","coordinates":[30.3190637,59.9568022]}},{"type":"Feature","id":"node/715270551","properties":{"name":"Kahvila Tuomenkukka"},"geometry":{"type":"Point","coordinates":[25.4771843,65.0186324]}},{"type":"Feature","id":"node/724402020","properties":{"name":"Hypoteekki","opening_hours":"Mo-Fr 10:00-16:00; Sa-Su off","website":"http://www.hypoteekki.net/"},"geometry":{"type":"Point","coordinates":[26.1157286,61.7429443]}},{"type":"Feature","id":"node/725188745","properties":{"name":"Novelli","opening_hours":"Mo-Th 08:30-19:30; Fr 08:30-15:00"},"geometry":{"type":"Point","coordinates":[25.7426799,62.2384494]}},{"type":"Feature","id":"node/727593683","properties":{"name":"Café Cavalier"},"geometry":{"type":"Point","coordinates":[24.930696,60.1671618]}},{"type":"Feature","id":"node/728615004","properties":{"name":"Kehäkukka"},"geometry":{"type":"Point","coordinates":[23.2000709,61.6345601]}},{"type":"Feature","id":"node/734453831","properties":{"name":"Farestiina kahvila"},"geometry":{"type":"Point","coordinates":[25.0666839,65.0379894]}},{"type":"Feature","id":"node/739368243","properties":{"name":"Kahvila Euron paikka"},"geometry":{"type":"Point","coordinates":[25.1864372,61.5614824]}},{"type":"Feature","id":"node/739368384","properties":{"name":"Sarin kotikahvila"},"geometry":{"type":"Point","coordinates":[25.1815734,61.5651653]}},{"type":"Feature","id":"node/739401530","properties":{"name":"Tupakahvila"},"geometry":{"type":"Point","coordinates":[25.2301571,61.353101]}},{"type":"Feature","id":"node/739430530","properties":{"name":"Matka-baari"},"geometry":{"type":"Point","coordinates":[26.9709232,62.8951814]}},{"type":"Feature","id":"node/739430536","properties":{"name":"ABC:n kahvila"},"geometry":{"type":"Point","coordinates":[26.9736688,62.8952267]}},{"type":"Feature","id":"node/741406105","properties":{"name":"Konditoria St. Honore","website":"http://www.sthonore.fi/"},"geometry":{"type":"Point","coordinates":[24.0640418,60.249431]}},{"type":"Feature","id":"node/741409487","properties":{"name":"Cafe Village"},"geometry":{"type":"Point","coordinates":[25.0992061,60.4038724]}},{"type":"Feature","id":"node/761116403","properties":{"name":"Laivaranta Kiosk"},"geometry":{"type":"Point","coordinates":[24.9803645,60.1750603]}},{"type":"Feature","id":"node/761162744","properties":{"name":"Konnunsuon Baari","opening_hours":"Mo 09:00-00:00; Tu-Su 09:00-17:00"},"geometry":{"type":"Point","coordinates":[28.5404224,61.030657]}},{"type":"Feature","id":"node/764552635","properties":{"name":"Kesäravintola Tuulaaki"},"geometry":{"type":"Point","coordinates":[29.7625278,62.5964901]}},{"type":"Feature","id":"node/765934442","properties":{"name":"Cafeteria"},"geometry":{"type":"Point","coordinates":[25.0202912,60.3966291]}},{"type":"Feature","id":"node/765961509","properties":{"name":"Sotilaskoti"},"geometry":{"type":"Point","coordinates":[25.0547074,60.153176]}},{"type":"Feature","id":"node/765967225","properties":{"name":"Paimentyttö"},"geometry":{"type":"Point","coordinates":[26.8239207,61.0407036]}},{"type":"Feature","id":"node/765967239","properties":{"name":"Hillosensalmen asema","url":"http://www.hillosensalmenasema.com/"},"geometry":{"type":"Point","coordinates":[26.787637,61.195301]}},{"type":"Feature","id":"node/766484516","properties":{"name":"Metsäkukka"},"geometry":{"type":"Point","coordinates":[25.5902705,60.9816152]}},{"type":"Feature","id":"node/766994895","properties":{"name":"Lenie's Cafe & Bar"},"geometry":{"type":"Point","coordinates":[21.1925793,62.968209]}},{"type":"Feature","id":"node/768061258","properties":{"name":"Katrilli","website":"https://www.polttoainepalvelu.fi/katrilli"},"geometry":{"type":"Point","coordinates":[27.2422229,61.5128902]}},{"type":"Feature","id":"node/768118652","properties":{"name":"Kahvila Karoliina"},"geometry":{"type":"Point","coordinates":[25.8524635,60.6696217]}},{"type":"Feature","id":"node/773736556","properties":{},"geometry":{"type":"Point","coordinates":[29.3804188,66.2712692]}},{"type":"Feature","id":"node/773932360","properties":{"name":"Старбакс","opening_hours":"Mo-Fr 07:30-22:00; Sa-Su 08:30-22:00","website":"https://www.starbucks.ru/store/1023954"},"geometry":{"type":"Point","coordinates":[30.3164333,59.9259841]}},{"type":"Feature","id":"node/774981914","properties":{"name":"Пышечная фабрика","website":"http://pishechnaya-fabrika.com/"},"geometry":{"type":"Point","coordinates":[30.3357511,59.9360256]}},{"type":"Feature","id":"node/785644238","properties":{"name":"Cafe Oulunkylä"},"geometry":{"type":"Point","coordinates":[24.9630235,60.2205315]}},{"type":"Feature","id":"node/786914581","properties":{"name":"Sarpi"},"geometry":{"type":"Point","coordinates":[21.7972735,61.4824416]}},{"type":"Feature","id":"node/788355300","properties":{"name":"ДЮК","opening_hours":"12:00-24:00"},"geometry":{"type":"Point","coordinates":[30.428819,59.7213947]}},{"type":"Feature","id":"node/791716863","properties":{"name":"Диана","opening_hours":"Mo-Su 11:00-22:00"},"geometry":{"type":"Point","coordinates":[30.240425,59.9309914]}},{"type":"Feature","id":"node/791716868","properties":{"name":"Кабанчик","opening_hours":"Mo-Su 11:00-24:00"},"geometry":{"type":"Point","coordinates":[30.2410203,59.9307554]}},{"type":"Feature","id":"node/792611884","properties":{"name":"Колибри"},"geometry":{"type":"Point","coordinates":[30.1263659,59.5709809]}},{"type":"Feature","id":"node/795140783","properties":{"name":"Bona Capona"},"geometry":{"type":"Point","coordinates":[30.4132662,59.7226443]}},{"type":"Feature","id":"node/798656782","properties":{"name":"Хлебниковъ","opening_hours":"Su-Th 12:00-24:00, Fr-Sa 12:00-02:00","website":"http://хлебниковъ.рф/"},"geometry":{"type":"Point","coordinates":[30.4087318,59.719482]}},{"type":"Feature","id":"node/798729487","properties":{"name":"Цех85"},"geometry":{"type":"Point","coordinates":[30.3596537,59.9470699]}},{"type":"Feature","id":"node/799905217","properties":{"name":"Пекарня Арго","opening_hours":"Mo-Su 08:00-21:00","website":"http://pekarniya-argo.ru/"},"geometry":{"type":"Point","coordinates":[30.2462723,59.9306288]}},{"type":"Feature","id":"node/799905326","properties":{"name":"Клио","opening_hours":"Mo-Su 12:00-22:00"},"geometry":{"type":"Point","coordinates":[30.2448581,59.9304573]}},{"type":"Feature","id":"node/800276877","properties":{"name":"Старый двор","opening_hours":"Mo-Su 10:00-23:00"},"geometry":{"type":"Point","coordinates":[30.25414,59.9335159]}},{"type":"Feature","id":"node/800277068","properties":{"name":"Алекс"},"geometry":{"type":"Point","coordinates":[30.2531762,59.9332162]}},{"type":"Feature","id":"node/801260895","properties":{"name":"Долина"},"geometry":{"type":"Point","coordinates":[30.2526043,59.9300398]}},{"type":"Feature","id":"node/801926769","properties":{"name":"Форум"},"geometry":{"type":"Point","coordinates":[30.5692703,59.8112572]}},{"type":"Feature","id":"node/803916835","properties":{"name":"Кемер"},"geometry":{"type":"Point","coordinates":[30.3289353,59.9268616]}},{"type":"Feature","id":"node/803916919","properties":{"name":"Узбечка"},"geometry":{"type":"Point","coordinates":[30.3242515,59.9271459]}},{"type":"Feature","id":"node/806509586","properties":{"name":"Север-Метрополь","opening_hours":"Mo-Fr 08:00-21:00; Sa-Su 09:00-21:00","website":"https://sever-metropol.ru/"},"geometry":{"type":"Point","coordinates":[30.3137505,59.9344236]}},{"type":"Feature","id":"node/806988059","properties":{"name":"Вкус Розмарина"},"geometry":{"type":"Point","coordinates":[30.3346601,59.9586136]}},{"type":"Feature","id":"node/808014170","properties":{"name":"Венская кофейня","opening_hours":"24/7","website":"https://www.coffeeshopcompany.ru/"},"geometry":{"type":"Point","coordinates":[30.3243436,59.9358111]}},{"type":"Feature","id":"node/812011403","properties":{"name":"Ботардо"},"geometry":{"type":"Point","coordinates":[30.3213466,59.9516963]}},{"type":"Feature","id":"node/813743725","properties":{"name":"Kärpäsen Kauppa ja Kahvio"},"geometry":{"type":"Point","coordinates":[25.2815784,60.558757]}},{"type":"Feature","id":"node/819023515","properties":{"name":"Picnic","opening_hours":"Mo-Fr 07:30-19:00; Sa 09:00-17:00; Su 11:00-16:00","website":"https://www.picnic.fi"},"geometry":{"type":"Point","coordinates":[24.8025612,60.1757102]}},{"type":"Feature","id":"node/819235327","properties":{"name":"Киликия","opening_hours":"Mo-Su 10:00-06:00","website":"http://kilikia.spb.ru/"},"geometry":{"type":"Point","coordinates":[30.319713,59.930395]}},{"type":"Feature","id":"node/819235369","properties":{},"geometry":{"type":"Point","coordinates":[30.317863,59.9371162]}},{"type":"Feature","id":"node/821346870","properties":{"name":"Maalaisvakka","opening_hours":"Mo-Fr 10:00-17:00; Sa 10:00-13:00"},"geometry":{"type":"Point","coordinates":[24.7079369,62.2570608]}},{"type":"Feature","id":"node/823377303","properties":{"name":"Kuhveikko","opening_hours":"11:00-20:00"},"geometry":{"type":"Point","coordinates":[27.8813899,64.8249723]}},{"type":"Feature","id":"node/825152812","properties":{},"geometry":{"type":"Point","coordinates":[30.213679,59.9526876]}},{"type":"Feature","id":"node/825152819","properties":{},"geometry":{"type":"Point","coordinates":[30.214949,59.9525134]}},{"type":"Feature","id":"node/825473179","properties":{"name":"Пироговый дворик"},"geometry":{"type":"Point","coordinates":[30.3498358,59.9591026]}},{"type":"Feature","id":"node/827968016","properties":{"name":"Жела"},"geometry":{"type":"Point","coordinates":[30.4062914,59.7223182]}},{"type":"Feature","id":"node/829296293","properties":{"name":"Paksuniemen satamakahvila","opening_hours":"Jun-Aug: 12:00-21:00","website":"www.paksuniemi.com"},"geometry":{"type":"Point","coordinates":[29.6323011,62.3317981]}},{"type":"Feature","id":"node/830401226","properties":{"name":"Vohvelikahvila","url":"http://www.vohvelikahvila.fi/"},"geometry":{"type":"Point","coordinates":[23.1285049,63.8373722]}},{"type":"Feature","id":"node/830414748","properties":{"name":"Mediacafe","opening_hours":"Su 12:00-12:00","website":"http://www.mediacafe.fi"},"geometry":{"type":"Point","coordinates":[23.1332635,63.8365295]}},{"type":"Feature","id":"node/831317285","properties":{"name":"Kahvipannu"},"geometry":{"type":"Point","coordinates":[27.3415604,61.7010375]}},{"type":"Feature","id":"node/832551317","properties":{"name":"Näkötornin kesäkahvio","opening_hours":"Mo-Su 12:00-17:00","website":"http://www.ohjelmamestarit.fi/"},"geometry":{"type":"Point","coordinates":[21.5437305,61.5759561]}},{"type":"Feature","id":"node/834400695","properties":{"name":"Kahden Muijan Kahvi","opening_hours":"Mo-Sa","website":"https://www.facebook.com/kaksmuijaa/"},"geometry":{"type":"Point","coordinates":[26.0306702,61.2024875]}},{"type":"Feature","id":"node/834400749","properties":{"name":"Maalaispuoti-kahvio"},"geometry":{"type":"Point","coordinates":[26.0304431,61.2033315]}},{"type":"Feature","id":"node/834400771","properties":{"name":"Naissaaren Kahvi- ja Juhlahuone"},"geometry":{"type":"Point","coordinates":[25.885121,62.2450114]}},{"type":"Feature","id":"node/835247648","properties":{"name":"Café Plagen"},"geometry":{"type":"Point","coordinates":[22.9829583,59.8250277]}},{"type":"Feature","id":"node/835516461","properties":{"name":"Arome","website":"http://www.arome.fi/"},"geometry":{"type":"Point","coordinates":[26.9360387,60.4624284]}},{"type":"Feature","id":"node/835529062","properties":{"name":"Cafe Serafina"},"geometry":{"type":"Point","coordinates":[26.9441497,60.466612]}},{"type":"Feature","id":"node/836511496","properties":{"name":"Linkkumylly","opening_hours":"12:00-17:00","website":"http://www.linkkumylly.fi/"},"geometry":{"type":"Point","coordinates":[26.8216636,61.3046746]}},{"type":"Feature","id":"node/837690820","properties":{"name":"Café Mjölnaren"},"geometry":{"type":"Point","coordinates":[19.7061508,64.2104359]}},{"type":"Feature","id":"node/837866869","properties":{"name":"Карелия"},"geometry":{"type":"Point","coordinates":[30.3115676,60.3665942]}},{"type":"Feature","id":"node/838474937","properties":{"name":"Чайный Дом","opening_hours":"Mo,Tu,Th 11:00-02:00, We 13:00-02:00, Fr,Sa 11:00-05:00, Su 11:00-03:00","website":"http://teahousesmall.ru/"},"geometry":{"type":"Point","coordinates":[30.3445379,59.9296689]}},{"type":"Feature","id":"node/839051598","properties":{"name":"Poiju"},"geometry":{"type":"Point","coordinates":[27.6542329,61.5833621]}},{"type":"Feature","id":"node/839052965","properties":{"name":"Alan's Café"},"geometry":{"type":"Point","coordinates":[22.9705156,59.8225992]}},{"type":"Feature","id":"node/839053272","properties":{"name":"Café  Tennis"},"geometry":{"type":"Point","coordinates":[22.9792704,59.8244274]}},{"type":"Feature","id":"node/843366366","properties":{"name":"Kuutoskuppi","website":"http://kuutoskuppi.websites.fi/"},"geometry":{"type":"Point","coordinates":[30.0874177,62.2025297]}},{"type":"Feature","id":"node/846229395","properties":{"name":"Рекон","opening_hours":"12:00-01:00"},"geometry":{"type":"Point","coordinates":[30.3982436,59.7220319]}},{"type":"Feature","id":"node/846469862","properties":{"name":"Café Gopal","opening_hours":"Mo-Fr 11:00-18:00; Sa 12:00-17:00","url":"http://kasvisravintolagopal.fi/","website":"https://www.gopal.fi/"},"geometry":{"type":"Point","coordinates":[23.7566905,61.4995823]}},{"type":"Feature","id":"node/847031945","properties":{"name":"Kosken Baari","opening_hours":"Mo-Fr 09:00-17:00; Sa 09:00-15:00; Su 10:00-14:00","url":"http://www.rivakka.net/siikakoskenkauppa/"},"geometry":{"type":"Point","coordinates":[27.7003752,61.7488441]}},{"type":"Feature","id":"node/849122918","properties":{"name":"Pikku Peikko","opening_hours":"Mo-Th 07:00-18:00; Fr 07:00-17:00"},"geometry":{"type":"Point","coordinates":[23.7544385,61.4991794]}},{"type":"Feature","id":"node/850325856","properties":{"name":"Kaffila","opening_hours":"Tu-Fr 10:00-18:00; Sa 12:00-18:00"},"geometry":{"type":"Point","coordinates":[23.7603616,61.4967055]}},{"type":"Feature","id":"node/853130069","properties":{"name":"Шашлычная \"У Бахмана\""},"geometry":{"type":"Point","coordinates":[29.6656123,60.2729395]}},{"type":"Feature","id":"node/855379128","properties":{"name":"Kahvila Taikapapu","opening_hours":"Mo-Fr 09:00-18:00; Sa 10:00-18:00; Su 12:00-17:00"},"geometry":{"type":"Point","coordinates":[23.7696113,61.4990963]}},{"type":"Feature","id":"node/856292290","properties":{"name":"Kulmakonditoria"},"geometry":{"type":"Point","coordinates":[24.862366,60.6320791]}},{"type":"Feature","id":"node/857940620","properties":{"name":"H&H Deli","opening_hours":"Mo-Fr 07:00-19:00","url":"http://hellajahuone.fi/","website":"https://www.hellajahuonedeli.fi/"},"geometry":{"type":"Point","coordinates":[23.7731534,61.4979467]}},{"type":"Feature","id":"node/858321384","properties":{},"geometry":{"type":"Point","coordinates":[30.4512259,59.9660156]}},{"type":"Feature","id":"node/860515871","properties":{"name":"Kahvila Alina"},"geometry":{"type":"Point","coordinates":[28.3738929,61.7861287]}},{"type":"Feature","id":"node/861726351","properties":{"name":"Kahvio kioski Hannu ja Kerttu"},"geometry":{"type":"Point","coordinates":[28.6811229,61.8980119]}},{"type":"Feature","id":"node/867392641","properties":{"name":"Helmikahvila","opening_hours":"Mo-Fr 06:30-17:00; Sa 07:00-12:00; Su 07:00-11:00","website":"https://www.helmikahvila.fi/"},"geometry":{"type":"Point","coordinates":[22.2682266,60.456381]}},{"type":"Feature","id":"node/870354122","properties":{},"geometry":{"type":"Point","coordinates":[25.2866244,61.3743574]}},{"type":"Feature","id":"node/871966891","properties":{"name":"Seo Juva"},"geometry":{"type":"Point","coordinates":[27.8725397,61.8941861]}},{"type":"Feature","id":"node/872093166","properties":{"name":"Cake House Café"},"geometry":{"type":"Point","coordinates":[23.7619783,61.4973813]}},{"type":"Feature","id":"node/873604274","properties":{"name":"Шашлычная"},"geometry":{"type":"Point","coordinates":[30.5902976,59.6982865]}},{"type":"Feature","id":"node/873615252","properties":{},"geometry":{"type":"Point","coordinates":[30.3715397,60.0211414]}},{"type":"Feature","id":"node/873823887","properties":{"name":"Loma-Kitsi","website":"https://www.lomakitsi.com/"},"geometry":{"type":"Point","coordinates":[30.7591586,63.2503951]}},{"type":"Feature","id":"node/873847021","properties":{"name":"Kahvio-ravintola"},"geometry":{"type":"Point","coordinates":[28.2076277,64.1700818]}},{"type":"Feature","id":"node/874300847","properties":{"name":"Pirkon kahvio ja kioski","opening_hours":"13:00 - 21:00"},"geometry":{"type":"Point","coordinates":[26.8471564,61.7631628]}},{"type":"Feature","id":"node/876253942","properties":{"name":"Pellekahvila"},"geometry":{"type":"Point","coordinates":[24.4237216,64.6240688]}},{"type":"Feature","id":"node/876274746","properties":{"name":"Трюм"},"geometry":{"type":"Point","coordinates":[29.8629105,59.8749909]}},{"type":"Feature","id":"node/877075619","properties":{"name":"La Cantine"},"geometry":{"type":"Point","coordinates":[24.8774067,60.1993852]}},{"type":"Feature","id":"node/877650691","properties":{"name":"Квартал","opening_hours":"24/7"},"geometry":{"type":"Point","coordinates":[30.3341403,59.8519551]}},{"type":"Feature","id":"node/885066114","properties":{"name":"У Палыча"},"geometry":{"type":"Point","coordinates":[29.7671974,59.9962462]}},{"type":"Feature","id":"node/888650316","properties":{"name":"Viialan kotileipomo","opening_hours":"Mo-Fr 08:00-17:00; Sa 09:00-14:00"},"geometry":{"type":"Point","coordinates":[23.847876,61.4508327]}},{"type":"Feature","id":"node/889111009","properties":{"name":"Pitkäkosken ulkoilumaja","opening_hours":"Tu-Sa 11:00-17:00; Su 10:00-18:00"},"geometry":{"type":"Point","coordinates":[24.8982349,60.2660206]}},{"type":"Feature","id":"node/893752788","properties":{"name":"Hakasen leipomo","opening_hours":"Mo-Fr 08:00-17:00; Sa 09:00-14:30","website":"https://www.hakasenleipomo.fi/kahvilat-ja-myymalat/"},"geometry":{"type":"Point","coordinates":[23.7809809,61.4988036]}},{"type":"Feature","id":"node/894756683","properties":{"name":"Kafe E6","opening_hours":"Mo-Sa 11:00-21:00;Su 12:00-21:00"},"geometry":{"type":"Point","coordinates":[22.0507173,69.9404216]}},{"type":"Feature","id":"node/895348294","properties":{"name":"Кафе-магазин Каравай.","opening_hours":"Mo-Su 08:00-19:00","website":"http://karavay.spb.ru"},"geometry":{"type":"Point","coordinates":[29.778574,59.9934289]}},{"type":"Feature","id":"node/896600877","properties":{"name":"Café Siilinkari","opening_hours":"Mo-Fr 08:00-17:00; Sa 08:00-16:00; Su 08:00-15:00","website":"https://linkosuo.fi/toimipaikka/cafe-siilinkari/"},"geometry":{"type":"Point","coordinates":[23.7680475,61.4980809]}},{"type":"Feature","id":"node/897597036","properties":{},"geometry":{"type":"Point","coordinates":[21.5190342,62.2072328]}},{"type":"Feature","id":"node/898023777","properties":{"name":"Satamakioski"},"geometry":{"type":"Point","coordinates":[24.699186,62.2559531]}},{"type":"Feature","id":"node/898023786","properties":{"name":"Bistro Otto"},"geometry":{"type":"Point","coordinates":[24.7082242,62.2597898]}},{"type":"Feature","id":"node/898656749","properties":{"name":"Torikahvila"},"geometry":{"type":"Point","coordinates":[26.9457227,60.4671743]}},{"type":"Feature","id":"node/899273854","properties":{"name":"Oittaan kahvila","website":"www.oittaankartano.fi"},"geometry":{"type":"Point","coordinates":[24.6579411,60.2416765]}},{"type":"Feature","id":"node/902324987","properties":{"name":"Cafe Vuorela","website":"http://www.lenex.fi/cafe-vuorela"},"geometry":{"type":"Point","coordinates":[26.935827,60.4649966]}},{"type":"Feature","id":"node/902830664","properties":{"name":"Tuuralan Kyläkaffila"},"geometry":{"type":"Point","coordinates":[22.276382,63.0119306]}},{"type":"Feature","id":"node/903273600","properties":{"name":"Neste Kuhmoinen","website":"http://www.nestekuhmoinen.fi/"},"geometry":{"type":"Point","coordinates":[25.1820375,61.5685099]}},{"type":"Feature","id":"node/903302005","properties":{"name":"Ben & Jerry's","opening_hours":"Mo-Sa 11:00-20:00","website":"https://www.benjerry.fi/"},"geometry":{"type":"Point","coordinates":[24.9450304,60.1678364]}},{"type":"Feature","id":"node/903636726","properties":{"name":"Cafe Mocca"},"geometry":{"type":"Point","coordinates":[23.7485546,61.4995138]}},{"type":"Feature","id":"node/903654785","properties":{"name":"Cafe la Famiglia"},"geometry":{"type":"Point","coordinates":[23.7588163,61.5003597]}},{"type":"Feature","id":"node/906792297","properties":{"name":"Кофейня на Садовой","opening_hours":"09:00-22:00"},"geometry":{"type":"Point","coordinates":[30.3249345,59.9300473]}},{"type":"Feature","id":"node/906792305","properties":{"name":"Золотая середина","opening_hours":"09:00-21:00"},"geometry":{"type":"Point","coordinates":[30.3225641,59.9331693]}},{"type":"Feature","id":"node/908781163","properties":{"name":"Onnelan matkailumaatila"},"geometry":{"type":"Point","coordinates":[26.8783618,64.2765348]}},{"type":"Feature","id":"node/908871444","properties":{},"geometry":{"type":"Point","coordinates":[29.9724821,59.5220544]}},{"type":"Feature","id":"node/908884682","properties":{"name":"Max's Cafe","opening_hours":"Mo-Fr 07:30-17:30; Sa 09:00-16:00; Su 10:00-16:00"},"geometry":{"type":"Point","coordinates":[24.8818295,60.197288]}},{"type":"Feature","id":"node/909068849","properties":{"name":"Кофе Хауз","website":"https://www.coffeehouse.ru/"},"geometry":{"type":"Point","coordinates":[30.2685565,59.8499931]}},{"type":"Feature","id":"node/909068976","properties":{"name":"буше","opening_hours":"08:00-23:00","website":"https://bushe.ru/"},"geometry":{"type":"Point","coordinates":[30.3200057,59.9263986]}},{"type":"Feature","id":"node/910328077","properties":{"name":"Мельник"},"geometry":{"type":"Point","coordinates":[30.2581422,59.9316866]}},{"type":"Feature","id":"node/910855173","properties":{"name":"Линдфорс","opening_hours":"Mo-Su 09:00-21:00","website":"https://spb.lindfors.ru/restorany/ul-dekabristov-19"},"geometry":{"type":"Point","coordinates":[30.3012239,59.9278184]}},{"type":"Feature","id":"node/911913399","properties":{"name":"Наутилус"},"geometry":{"type":"Point","coordinates":[29.7749829,59.9869207]}},{"type":"Feature","id":"node/911913407","properties":{"name":"Мимино"},"geometry":{"type":"Point","coordinates":[29.7738029,59.9901613]}},{"type":"Feature","id":"node/912410437","properties":{"name":"Баскин Роббинс","website":"http://baskinrobbins.ru/"},"geometry":{"type":"Point","coordinates":[30.3313926,60.0540674]}},{"type":"Feature","id":"node/912421025","properties":{"name":"Кофе Хауз","website":"https://www.coffeehouse.ru/"},"geometry":{"type":"Point","coordinates":[30.3680655,60.0337475]}},{"type":"Feature","id":"node/913271753","properties":{"name":"Krissen kahvila","opening_hours":"Mo-Th 05:00-18:00; Fr 05:00-17:00; Sa 09:00-15:00"},"geometry":{"type":"Point","coordinates":[24.3339724,60.4256659]}},{"type":"Feature","id":"node/914764730","properties":{"name":"Золотой Якорь"},"geometry":{"type":"Point","coordinates":[29.7632608,59.9892743]}},{"type":"Feature","id":"node/914850425","properties":{"name":"Волна"},"geometry":{"type":"Point","coordinates":[30.4698178,59.9120284]}},{"type":"Feature","id":"node/914850441","properties":{"name":"Wild Bean","opening_hours":"24/7"},"geometry":{"type":"Point","coordinates":[30.4549388,59.9048062]}},{"type":"Feature","id":"node/915470159","properties":{"name":"Каштан","opening_hours":"Mo-Su 11:00-23:00","website":"http://vk.com/kashtan_kafe"},"geometry":{"type":"Point","coordinates":[29.7644216,59.9956817]}},{"type":"Feature","id":"node/915470419","properties":{"name":"Пирожковая"},"geometry":{"type":"Point","coordinates":[29.763189,59.9929521]}},{"type":"Feature","id":"node/915470484","properties":{"name":"Трактир"},"geometry":{"type":"Point","coordinates":[29.765246,60.000816]}},{"type":"Feature","id":"node/915470490","properties":{"name":"Сказка","opening_hours":"Mo-Su 10:00-23:00","website":"http://vk.com/club135160694"},"geometry":{"type":"Point","coordinates":[29.7639683,59.9946408]}},{"type":"Feature","id":"node/915470527","properties":{},"geometry":{"type":"Point","coordinates":[29.7637643,59.9981553]}},{"type":"Feature","id":"node/915686480","properties":{"name":"Цех85","opening_hours":"Mo-Fr 08:00-22:00;Sa-Su 09:00-22:00"},"geometry":{"type":"Point","coordinates":[30.479921,59.905591]}},{"type":"Feature","id":"node/915754602","properties":{"name":"Бистро"},"geometry":{"type":"Point","coordinates":[30.4731562,59.9159429]}},{"type":"Feature","id":"node/915754605","properties":{"name":"Диван"},"geometry":{"type":"Point","coordinates":[30.4771777,59.9137886]}},{"type":"Feature","id":"node/915754632","properties":{"name":"Бистро"},"geometry":{"type":"Point","coordinates":[30.4805401,59.9080155]}},{"type":"Feature","id":"node/916784031","properties":{"name":"Шумли","website":"https://www.schumli.ru/"},"geometry":{"type":"Point","coordinates":[30.3125264,59.9291766]}},{"type":"Feature","id":"node/918186963","properties":{"name":"ШарБар","opening_hours":"Mo-Th 11:00-23:00; Fr-Su 12:00-00:00"},"geometry":{"type":"Point","coordinates":[30.3136954,59.9307694]}},{"type":"Feature","id":"node/918942673","properties":{"name":"Ламберг","opening_hours":"Su-Th 08:00-21:00; Fr,Sa 08:00-23:00"},"geometry":{"type":"Point","coordinates":[30.689857,61.7005065]}},{"type":"Feature","id":"node/918942688","properties":{"name":"Топаз"},"geometry":{"type":"Point","coordinates":[30.690141,61.7011567]}},{"type":"Feature","id":"node/919640125","properties":{"name":"Чайникофф","opening_hours":"24/7","website":"https://chainikoff.ru/"},"geometry":{"type":"Point","coordinates":[30.3179534,59.9275562]}},{"type":"Feature","id":"node/920079997","properties":{"name":"Juno","opening_hours":"Su-Th 11:30-23:30, Fr-Sa 11:30-01:00","website":"http://pashtetspb.ru/"},"geometry":{"type":"Point","coordinates":[30.3105901,59.9286512]}},{"type":"Feature","id":"node/920536394","properties":{},"geometry":{"type":"Point","coordinates":[31.4297295,61.5952921]}},{"type":"Feature","id":"node/920624483","properties":{"name":"Обед-сервис"},"geometry":{"type":"Point","coordinates":[30.312642,59.9292064]}},{"type":"Feature","id":"node/922666753","properties":{"name":"Sabr"},"geometry":{"type":"Point","coordinates":[30.3075808,59.9263045]}},{"type":"Feature","id":"node/923981516","properties":{"name":"Cafe Aine","opening_hours":"Tu-Th 11:00-18:00; Fr-Su 11:00-15:00","website":"https://www.tornio.fi/CafeAine"},"geometry":{"type":"Point","coordinates":[24.1400314,65.8462245]}},{"type":"Feature","id":"node/927743425","properties":{"name":"Picnic","opening_hours":"Mo-Fr 06:45-19:00; Sa 08:00-18:00; Su 09:00-18:00","website":"https://www.picnic.fi/"},"geometry":{"type":"Point","coordinates":[24.9177244,60.1839811]}},{"type":"Feature","id":"node/928055096","properties":{"url":"http://www.lottamuseo.com/fi/kahvila.html"},"geometry":{"type":"Point","coordinates":[25.0496536,60.4263553]}},{"type":"Feature","id":"node/928057745","properties":{"name":"Kahvila Aulis","website":"http://www.ainola.fi/"},"geometry":{"type":"Point","coordinates":[25.0864109,60.4542477]}},{"type":"Feature","id":"node/928193399","properties":{"name":"Cafe Piritta"},"geometry":{"type":"Point","coordinates":[24.9410918,60.1802791]}},{"type":"Feature","id":"node/928523968","properties":{"name":"Coffit","opening_hours":"08:00-23:00","website":"http://www.coffit.spb.ru/"},"geometry":{"type":"Point","coordinates":[30.3169306,59.9273738]}},{"type":"Feature","id":"node/931819262","properties":{"name":"Зингеръ","opening_hours":"Mo-Su 09:00-22:30","website":"http://singercafe.ru/"},"geometry":{"type":"Point","coordinates":[30.3257901,59.935651]}},{"type":"Feature","id":"node/933747259","properties":{"name":"Stolov-ka","opening_hours":"Mo-Fr 08:00-23:00; Sa-Su 09:00-23:00"},"geometry":{"type":"Point","coordinates":[30.3164969,59.9259473]}},{"type":"Feature","id":"node/938244192","properties":{"name":"У камина"},"geometry":{"type":"Point","coordinates":[30.2610466,60.0142221]}},{"type":"Feature","id":"node/938318186","properties":{"name":"Konditoriakahvila Galette","opening_hours":"Mo-Fr 07:00-17:00; Sa 08:00-13:00"},"geometry":{"type":"Point","coordinates":[26.9311024,60.5146666]}},{"type":"Feature","id":"node/938730806","properties":{},"geometry":{"type":"Point","coordinates":[30.2681668,60.0183993]}},{"type":"Feature","id":"node/939939591","properties":{"name":"ABC! Oravais","opening_hours":"Mo-Fr 06:00-23:00; Sa-Su 08:00-23:00"},"geometry":{"type":"Point","coordinates":[22.385993,63.3073485]}},{"type":"Feature","id":"node/940889329","properties":{},"geometry":{"type":"Point","coordinates":[29.7796816,59.9065229]}},{"type":"Feature","id":"node/941495130","properties":{"name":"Kotoisa"},"geometry":{"type":"Point","coordinates":[25.1002858,60.4038445]}},{"type":"Feature","id":"node/943165826","properties":{"name":"St1 Oravais"},"geometry":{"type":"Point","coordinates":[22.3784621,63.3043994]}},{"type":"Feature","id":"node/943203745","properties":{"name":"Berra's Café & Service","opening_hours":"Mo-Sa 07:30-20:00, Su 12:00-18:00"},"geometry":{"type":"Point","coordinates":[22.4378574,63.4487817]}},{"type":"Feature","id":"node/943210710","properties":{"name":"Sale Jeppo","opening_hours":"Mo-Sa 08:00-21:00; Su 10:00-18:00"},"geometry":{"type":"Point","coordinates":[22.6295865,63.3973651]}},{"type":"Feature","id":"node/943852501","properties":{"name":"Проспект","opening_hours":"24/7"},"geometry":{"type":"Point","coordinates":[30.4296666,59.898912]}},{"type":"Feature","id":"node/945285895","properties":{"name":"Центральная столовая","opening_hours":"Mo,We,Fr 08:00-19:00; Tu,Th 08:00-20:00; Sa 09:00-19:00","website":"https://www.7771000.ru/services/tsentr-obshchestvennogo-pitaniya/"},"geometry":{"type":"Point","coordinates":[30.3942579,59.9412728]}},{"type":"Feature","id":"node/946053531","properties":{"name":"Третий тайм"},"geometry":{"type":"Point","coordinates":[29.5975472,60.257955]}},