{
  "version": 0.6,
  "generator": "Overpass API 0.7.57 93a4d346",
  "osm3s": {
    "timestamp_osm_base": "2022-02-13T12:25:55Z",
    "copyright": "The data included in this document is from www.openstreetmap.org. The data is made available under ODbL."
  },
  "elements": [

{
  "type": "node",
  "id": 33698213,
  "lat": 60.5187547,
  "lon": 24.8437196,
  "tags": {
    "amenity": "cafe",
    "diet:halal": "no",
    "diet:kosher": "no",
    "name": "Kahvila Roosa"
  }
},
{
  "type": "node",
  "id": 51418546,
  "lat": 60.2063168,
  "lon": 25.0520591,
  "tags": {
    "addr:city": "Helsinki",
    "addr:housenumber": "50",
    "addr:postcode": "00800",
    "addr:street": "Sahaajankatu",
    "amenity": "cafe",
    "diet:halal": "no",
    "diet:kosher": "no",
    "name": "St1:n kahvila",
    "operator": "St1"
  }
},
{
  "type": "node",
  "id": 53720251,
  "lat": 60.1945690,
  "lon": 25.0468871,
  "tags": {
    "amenity": "cafe",
    "diet:halal": "no",
    "diet:kosher": "no",
    "name": "Starkin kahvila"
  }
},
{
  "type": "node",
  "id": 54637826,
  "lat": 60.1865123,
  "lon": 24.9919404,
  "tags": {
    "amenity": "cafe",
    "diet:kosher": "no",
    "name": "Venesataman kahvila"
  }
},
{
  "type": "node",
  "id": 59035034,
  "lat": 60.2243031,
  "lon": 25.0777342,
  "tags": {
    "addr:city": "Helsinki",
    "addr:housenumber": "3",
    "addr:postcode": "00920",
    "addr:street": "Jauhokuja",
    "amenity": "cafe",
    "diet:halal": "no",
    "diet:kosher": "no",
    "name": "Café Ateriax",
    "old_name": "Café Rock'n roll",
    "website": "http://ateriax.fi/",
    "wheelchair": "yes"
  }
},
{
  "type": "node",
  "id": 59952436,
  "lat": 60.2102866,
  "lon": 25.0615535,
  "tags": {
    "amenity": "cafe",
    "diet:halal": "no",
    "diet:kosher": "no",
    "level": "1",
    "name": "K-Raudan kahvio",
    "website": "http://www.k-rauta.fi/",
    "wheelchair": "yes"
  }
},
{
  "type": "node",
  "id": 60068035,
  "lat": 60.1699670,
  "lon": 24.9375180,
  "tags": {
    "addr:city": "Helsinki",
    "addr:country": "FI",
    "amenity": "cafe",
    "diet:halal": "no",
    "diet:kosher": "no",
    "name": "Cafe Java",
    "opening_hours": "Mo,Tu 08:00-22:00; We-Sa 08:00-24:00, Su 09:00-22:00",
    "url": "http://www.cafejava.fi/",
    "wheelchair": "limited"
  }
},
{
  "type": "node",
  "id": 60072511,
  "lat": 60.1599267,
  "lon": 24.9464208,
  "tags": {
    "addr:city": "Helsinki",
    "addr:country": "FI",
    "addr:housenumber": "2",
    "addr:postcode": "00140",
    "addr:street": "Korkeavuorenkatu",
    "amenity": "cafe",
    "diet:halal": "no",
    "diet:kosher": "no",
    "name": "Café Succès",
    "opening_hours": "Mo-Fr 08:00-18:00; Sa 10:00-17:00; Su 12:00-17:00; Jul 01-31 Sa-Su off; PH off",
    "website": "https://www.facebook.com/cafesucces"
  }
},
{
  "type": "node",
  "id": 60124699,
  "lat": 60.1801647,
  "lon": 24.9117982,
  "tags": {
    "addr:city": "Helsinki",
    "addr:country": "FI",
    "amenity": "cafe",
    "contact:facebook": "https://www.facebook.com/caferegatta",
    "contact:instagram": "https://www.instagram.com/caferegatta",
    "contact:phone": "+358 400760049",
    "contact:website": "http://caferegatta.fi",
    "contact:website:en": "http://caferegatta.fi/in-english/",
    "cuisine": "regional",
    "description": "Helsingin paras pieni kahvila. Kodikas paikka, maksu vain käteisellä (myös luotolla jos ei ole rahaa mukana). Santsi kahvikupista annetaan asiakkaalle 5c...",
    "diet:vegan": "yes",
    "name": "Cafe Regatta",
    "name:zh": "瑞卡塔咖啡馆",
    "opening_hours": "Mo-Fr 09:00-20:00; Sa-Su 08:00-21:00",
    "wheelchair": "no",
    "wikidata": "Q18913085"
  }
},
{
  "type": "node",
  "id": 60428328,
  "lat": 60.1869533,
  "lon": 25.0362518,
  "tags": {
    "amenity": "cafe",
    "name": "Manaatti"
  }
},
{
  "type": "node",
  "id": 61907312,
  "lat": 60.2132848,
  "lon": 25.0848729,
  "tags": {
    "addr:city": "Helsinki",
    "addr:housename": "Stockmann Itis",
    "addr:housenumber": "1",
    "addr:postcode": "00930",
    "addr:street": "Itäkatu",
    "amenity": "cafe",
    "cuisine": "coffee_shop",
    "diet:halal": "no",
    "diet:kosher": "no",
    "level": "2",
    "name": "Robert's Coffee",
    "opening_hours": "Mo-Fr 09:00-21:00; Sa 09:00-21:00; Su 12:00-18:00",
    "phone": "+358 9 121 4691",
    "website": "https://www.robertscoffee.com/cafe/stockmann-itis/",
    "wheelchair": "yes"
  }
},
{
  "type": "node",
  "id": 66421566,
  "lat": 60.4524784,
  "lon": 22.2561574,
  "tags": {
    "addr:city": "Turku",
    "addr:country": "FI",
    "amenity": "cafe",
    "diet:halal": "no",
    "diet:kosher": "no",
    "name": "Naantalin Aurinkoinen",
    "postal_code": "20100"
  }
},
{
  "type": "node",
  "id": 73114098,
  "lat": 60.2061581,
  "lon": 25.1463760,
  "tags": {
    "addr:city": "Helsinki",
    "addr:country": "FI",
    "addr:housenumber": "3",
    "addr:postcode": "00980",
    "addr:street": "Kahvikuja",
    "amenity": "cafe",
    "name": "Cafe Kahvikuja",
    "outdoor_seating": "no",
    "website": "http://www.facebook.com/HHcafekahvikuja",
    "wheelchair": "yes"
  }
},
{
  "type": "node",
  "id": 80259831,
  "lat": 63.0964486,
  "lon": 21.6145370,
  "tags": {
    "amenity": "cafe",
    "name": "Aschan Coffee & Deli"
  }
},
{
  "type": "node",
  "id": 81388717,
  "lat": 63.0962061,
  "lon": 21.6132008,
  "tags": {
    "amenity": "cafe",
    "name": "Kotileipomo Hämäläinen",
    "opening_hours": "Mo-Fr 08:00-18:00; Sa 09:00-16:00",
    "website": "https://www.kotileipomohamalainen.fi"
  }
},
{
  "type": "node",
  "id": 81392347,
  "lat": 63.0958543,
  "lon": 21.6147229,
  "tags": {
    "amenity": "cafe",
    "level": "0",
    "name": "Cafe Paris",
    "note": "jos alkaa olemaan liian täyttä, voi poistaa"
  }
},
{
  "type": "node",
  "id": 84441134,
  "lat": 62.7048045,
  "lon": 25.2599409,
  "tags": {
    "amenity": "cafe",
    "is_in": "Saarijärvi, Finland",
    "name": "Frisee",
    "was:amenity": "fast_food"
  }
},
{
  "type": "node",
  "id": 89123693,
  "lat": 60.2367178,
  "lon": 25.0847852,
  "tags": {
    "amenity": "cafe",
    "diet:halal": "no",
    "diet:kosher": "no",
    "name": "Marian konditoria"
  }
},
{
  "type": "node",
  "id": 116703845,
  "lat": 60.1681411,
  "lon": 24.9306796,
  "tags": {
    "addr:city": "Helsinki",
    "addr:postcode": "00100",
    "amenity": "cafe",
    "diet:halal": "no",
    "diet:kosher": "no",
    "name": "Robert's Coffee",
    "website": "https://robertscoffee.com/"
  }
},
{
  "type": "node",
  "id": 146489323,
  "lat": 60.1629349,
  "lon": 24.9061837,
  "tags": {
    "addr:city": "Helsinki",
    "addr:housenumber": "30",
    "addr:postcode": "00180",
    "addr:street": "Itämerenkatu",
    "amenity": "cafe",
    "diet:halal": "no",
    "diet:kosher": "no",
    "name": "Café Cable",
    "wheelchair": "yes"
  }
},
{
  "type": "node",
  "id": 146506541,
  "lat": 60.1635455,
  "lon": 24.9152812,
  "tags": {
    "addr:city": "Helsinki",
    "addr:housenumber": "11",
    "addr:postcode": "00180",
    "addr:street": "Itämerenkatu",
    "amenity": "cafe",
    "diet:halal": "no",
    "diet:kosher": "no",
    "internet_access": "wlan",
    "name": "Picnic Ruoholahti",
    "opening_hours:covid19": "restricted",
    "phone": "+358 9  694 4624",
    "takeaway:covid19": "only",
    "url": "http://www.picnic.fi",
    "website": "https://www.picnic.fi"
  }
},
{
  "type": "node",
  "id": 146523124,
  "lat": 60.2294634,
  "lon": 25.0259943,
  "tags": {
    "amenity": "cafe",
    "diet:halal": "no",
    "diet:kosher": "no",
    "name": "Sport cafe"
  }
},
{
  "type": "node",
  "id": 150541320,
  "lat": 60.1725449,
  "lon": 24.9373810,
  "tags": {
    "addr:city": "Helsinki",
    "addr:country": "FI",
    "addr:housenumber": "2",
    "addr:postcode": "00100",
    "addr:street": "Töölönlahdenkatu",
    "amenity": "cafe",
    "diet:halal": "no",
    "diet:kosher": "no",
    "high_chair": "yes",
    "name": "Cafè Sanomakahvila",
    "website": "https://www.fazer.fi/kahvilat-ja-leipomot/ravintolat/byfazer/sanomacafe/",
    "wheelchair": "yes"
  }
},
{
  "type": "node",
  "id": 151006083,
  "lat": 60.1645227,
  "lon": 24.9364905,
  "tags": {
    "access:covid19": "no",
    "addr:city": "Helsinki",
    "addr:country": "FI",
    "addr:housenumber": "28",
    "addr:postcode": "00120",
    "addr:street": "Fredrikinkatu",
    "amenity": "cafe",
    "brand": "Picnic",
    "diet:halal": "no",
    "diet:kosher": "no",
    "diet:vegetarian": "yes",
    "name": "Picnic",
    "opening_hours": "Mo-Fr 7:00-18:00; Sa 10:00-16:00",
    "opening_hours:covid19": "Mo-Fr 08:00-16:00",
    "takeaway:covid19": "only",
    "website": "http://www.picnic.fi/"
  }
},
{
  "type": "node",
  "id": 151006533,
  "lat": 60.1647366,
  "lon": 24.9377736,
  "tags": {
    "addr:city": "Helsinki",
    "addr:country": "FI",
    "addr:housenumber": "9",
    "addr:postcode": "00120",
    "addr:street": "Bulevardi",
    "amenity": "cafe",
    "diet:halal": "no",
    "diet:kosher": "no",
    "name": "Cafe Ekberg",
    "opening_hours": "Mo-Fr 7:30-19:00;Sa 8:30-17:00;Su 9:00-17:00",
    "website": "http://www.cafeekberg.fi/",
    "wheelchair": "limited",
    "wikidata": "Q11857235"
  }
},
{
  "type": "node",
  "id": 151006709,
  "lat": 60.1651791,
  "lon": 24.9360783,
  "tags": {
    "addr:city": "Helsinki",
    "addr:country": "FI",
    "addr:housenumber": "41",
    "addr:postcode": "00120",
    "addr:street": "Fredrikinkatu",
    "amenity": "cafe",
    "diet:halal": "no",
    "diet:kosher": "no",
    "name": "Kakkugalleria",
    "name:fi": "Kakkugalleria",
    "opening_hours": "Mo-Fr 11:00-19:00; Sa 10:00-18:00; Su 12:00-17:00",
    "website": "https://www.kakkugalleria.com/"
  }
},
{
  "type": "node",
  "id": 151007313,
  "lat": 60.1652197,
  "lon": 24.9322832,
  "tags": {
    "addr:city": "Helsinki",
    "addr:country": "FI",
    "amenity": "cafe",
    "cuisine": "international;sandwich",
    "diet:halal": "no",
    "diet:kosher": "no",
    "diet:vegetarian": "yes",
    "email": "grandelicato.helsinki@gmail.com",
    "name": "Gran Delicato",
    "opening_hours": "Mo-Fr 8:00-20:00; Sa 10:00-18:00; Su 12:00-18:00",
    "opening_hours:covid19": "Mo-Sa 08:00-20:00",
    "phone": "+358 (0) 9 694 0403",
    "takeaway:covid19": "yes",
    "website": "http://www.grandelicato.fi/"
  }
},
{
  "type": "node",
  "id": 159806896,
  "lat": 60.9948960,
  "lon": 24.4646290,
  "tags": {
    "addr:city": "Hämeenlinna",
    "addr:housenumber": "11",
    "addr:postcode": "13100",
    "addr:street": "Palokunnankatu",
    "amenity": "cafe",
    "cuisine": "coffee_shop",
    "diet:halal": "no",
    "diet:kosher": "no",
    "name": "Café Kukko",
    "url": "http://www.cafekukko.fi/",
    "website": "http://cafekukko.fi/",
    "wheelchair": "limited",
    "wheelchair:description": "Tel. +358 3 6165670. Kiinni yleensä heinäkuussa / Closed usually in July."
  }
},
{
  "type": "node",
  "id": 159815975,
  "lat": 60.9964593,
  "lon": 24.4670471,
  "tags": {
    "addr:city": "Hämeenlinna",
    "addr:country": "FI",
    "addr:housenumber": "11",
    "addr:postcode": "13100",
    "addr:street": "Raatihuoneenkatu",
    "amenity": "cafe",
    "diet:halal": "no",
    "diet:kosher": "no",
    "name": "Café Green Laurell",
    "url": "http://www.laurell.fi/",
    "website": "http://laurell.fi/kahvilat/green-laurell",
    "wheelchair": "yes"
  }
},
{
  "type": "node",
  "id": 159845798,
  "lat": 60.9962014,
  "lon": 24.4639723,
  "tags": {
    "addr:city": "Hämeenlinna",
    "addr:housenumber": "7",
    "addr:postcode": "13100",
    "addr:street": "Sibeliuksenkatu",
    "amenity": "cafe",
    "diet:halal": "no",
    "diet:kosher": "no",
    "name": "Café Laurell",
    "url": "http://www.laurell.fi/"
  }
},
{
  "type": "node",
  "id": 174966777,
  "lat": 60.1929028,
  "lon": 25.0316180,
  "tags": {
    "addr:city": "Helsinki",
    "addr:housenumber": "15",
    "addr:postcode": "00810",
    "addr:street": "Hitsaajankatu",
    "amenity": "cafe",
    "brand": "Picnic",
    "diet:halal": "no",
    "diet:kosher": "no",
    "name": "Picnic",
    "opening_hours": "Mo-Fr 07:30-19:00; Sa 10:00-16:00",
    "opening_hours:covid19": "restricted",
    "takeaway:covid19": "only",
    "website": "https://www.picnic.fi"
  }
},
{
  "type": "node",
  "id": 207628450,
  "lat": 62.7633240,
  "lon": 25.3681662,
  "tags": {
    "amenity": "cafe",
    "is_in": "Saarijärvi, Finland",
    "name": "Kylätuvan kahvio"
  }
},
{
  "type": "node",
  "id": 227709636,
  "lat": 60.2084991,
  "lon": 24.9664618,
  "tags": {
    "addr:city": "Helsinki",
    "addr:housenumber": "25",
    "addr:postcode": "00560",
    "addr:street": "Intiankatu",
    "amenity": "cafe",
    "cuisine": "coffee_shop",
    "diet:halal": "no",
    "diet:kosher": "no",
    "name": "Konditoria Hopia",
    "outdoor_seating": "yes",
    "website": "http://www.konditoriahopia.fi/"
  }
},
{
  "type": "node",
  "id": 241485623,
  "lat": 60.4496678,
  "lon": 22.2684998,
  "tags": {
    "amenity": "cafe",
    "diet:halal": "no",
    "diet:kosher": "no",
    "diet:vegetarian": "yes",
    "name": "Fontana",
    "opening_hours": "Mo-Th 10:00-22:00; Fr-Sa 10:00-23:00; Su 12:00-19:00",
    "opening_hours:covid19": "open",
    "postal_code": "20100",
    "takeaway:covid19": "yes",
    "url": "http://fontana.torre.fi/",
    "wheelchair": "yes"
  }
},
{
  "type": "node",
  "id": 242092686,
  "lat": 68.4224475,
  "lon": 27.4096039,
  "tags": {
    "addr:city": "Saariselkä",
    "addr:country": "FI",
    "addr:postcode": "99830",
    "amenity": "cafe",
    "name": "Neste Saariselkä",
    "snowmobile": "yes",
    "website": "https://www.nestesaariselka.fi/"
  }
},
{
  "type": "node",
  "id": 242121272,
  "lat": 68.4335449,
  "lon": 27.4433015,
  "tags": {
    "addr:city": "Saariselkä",
    "addr:postcode": "99830",
    "addr:street": "Kaunispääntie",
    "amenity": "cafe",
    "name": "Huippu",
    "phone": "+358 16 668 803",
    "piste:amenity": "cafe",
    "snowmobile": "yes",
    "website": "http://www.kaunispaanhuippu.fi/"
  }
},
{
  "type": "node",
  "id": 242121894,
  "lat": 68.3911294,
  "lon": 27.3997638,
  "tags": {
    "amenity": "cafe",
    "name": "Laanilan Savottakahvila",
    "opening_hours": "Mo-Su 09:00-20:00",
    "piste:amenity": "cafe",
    "snowmobile": "yes",
    "website": "http://www.savottakahvila.fi/"
  }
},
{
  "type": "node",
  "id": 242151203,
  "lat": 68.3344841,
  "lon": 27.3339600,
  "tags": {
    "amenity": "cafe",
    "name": "Hotel and Igloo Village Kakslauttanen",
    "piste:amenity": "cafe",
    "snowmobile": "yes",
    "website": "http://www.kakslauttanen.fi"
  }
},
{
  "type": "node",
  "id": 242156907,
  "lat": 68.4649289,
  "lon": 27.4900894,
  "tags": {
    "amenity": "cafe",
    "name": "Joikun kota",
    "piste:amenity": "cafe",
    "snowmobile": "yes",
    "toilets": "yes",
    "website": "www.joikukotsamo.fi/fin/joikunkota"
  }
},
{
  "type": "node",
  "id": 242162233,
  "lat": 68.4198899,
  "lon": 27.4100738,
  "tags": {
    "addr:city": "Saariselkä",
    "addr:country": "FI",
    "addr:housenumber": "1",
    "addr:postcode": "99830",
    "addr:street": "Saariseläntie",
    "amenity": "cafe",
    "cuisine": "regional",
    "internet_access": "wlan",
    "name": "Cafe-ravintola Kuukkeli",
    "opening_hours": "mo-su 09:00-21:00",
    "phone": "+358 16 668741",
    "smoking": "outside",
    "website": "http://www.accommodationkuukkeli.com/restaurant/"
  }
},
{
  "type": "node",
  "id": 246535548,
  "lat": 63.1088872,
  "lon": 21.5953755,
  "tags": {
    "amenity": "cafe",
    "is_in": "Palosaari, Vaasa, Finland",
    "name": "Othello",
    "shop": "bakery"
  }
},
{
  "type": "node",
  "id": 247416118,
  "lat": 60.1710001,
  "lon": 24.9444687,
  "tags": {
    "addr:city": "Helsinki",
    "addr:postcode": "00100",
    "addr:street": "Rautatientori",
    "amenity": "cafe",
    "cuisine": "coffee_shop",
    "diet:halal": "no",
    "diet:kosher": "no",
    "name": "Jääpuiston kahvila",
    "note": "tilapäinen",
    "website": "https://www.jaapuisto.fi/kahvila/",
    "wheelchair:description": "Talvisin / During wintertime."
  }
},
{
  "type": "node",
  "id": 249883326,
  "lat": 63.0961741,
  "lon": 21.6170329,
  "tags": {
    "amenity": "cafe",
    "level": "1",
    "name": "Cafe Commerce",
    "wheelchair": "yes"
  }
},
{
  "type": "node",
  "id": 249883329,
  "lat": 63.0958266,
  "lon": 21.6145007,
  "tags": {
    "amenity": "cafe",
    "is_in": "Vaasa, Finland",
    "level": "0",
    "name": "Görans Konditori",
    "shop": "bakery",
    "wheelchair": "yes"
  }
},
{
  "type": "node",
  "id": 249883373,
  "lat": 63.0994099,
  "lon": 21.6104860,
  "tags": {
    "amenity": "cafe",
    "name": "Cafe Proosa"
  }
},
{
  "type": "node",
  "id": 250576139,
  "lat": 60.2232842,
  "lon": 25.1151161,
  "tags": {
    "addr:city": "Helsinki",
    "addr:housenumber": "30",
    "addr:postcode": "00950",
    "addr:street": "Linnavuorentie",
    "amenity": "cafe",
    "fixme": "Valid?",
    "name": "Kahvio Teboil Itäväylä",
    "website": "https://www.teboilitavayla.com/kahvio-ravintola/",
    "wheelchair": "yes"
  }
},
{
  "type": "node",
  "id": 250839073,
  "lat": 60.4511381,
  "lon": 22.2804921,
  "tags": {
    "amenity": "cafe",
    "diet:halal": "no",
    "diet:kosher": "no",
    "name": "Nurmi & Sulonen"
  }
},
{
  "type": "node",
  "id": 251202062,
  "lat": 63.8363581,
  "lon": 23.1300840,
  "tags": {
    "addr:city": "Kokkola",
    "addr:housenumber": "8",
    "addr:postcode": "67100",
    "addr:street": "Tehtaankatu",
    "amenity": "cafe",
    "is_in": "Kokkola, Finland",
    "name": "Stiina",
    "phone": "(06) 831 8250"
  }
},
{
  "type": "node",
  "id": 251977387,
  "lat": 61.9041105,
  "lon": 29.8122164,
  "tags": {
    "addr:city": "Kesälahti",
    "amenity": "cafe",
    "name": "St1 Kesälahti",
    "opening_hours": "Mo-Fr 06:00-21:00,Sa-Su 07:00-21:00",
    "snowmobile": "yes"
  }
},
{
  "type": "node",
  "id": 253755733,
  "lat": 62.2865668,
  "lon": 25.7201761,
  "tags": {
    "amenity": "cafe",
    "name": "Submarine"
  }
},
{
  "type": "node",
  "id": 253912275,
  "lat": 65.9590492,
  "lon": 24.0536029,
  "tags": {
    "amenity": "cafe"
  }
},
{
  "type": "node",
  "id": 253915534,
  "lat": 66.5532412,
  "lon": 23.8653279,
  "tags": {
    "amenity": "cafe",
    "name": "Tuomaan Tupa",
    "snowmobile": "yes",
    "website": "https://www.tuomaantupa.fi/"
  }
},
{
  "type": "node",
  "id": 254282071,
  "lat": 67.7846246,
  "lon": 24.8540174,
  "tags": {
    "addr:city": "Levi",
    "amenity": "cafe",
    "name": "Palovartija",
    "url": "http://www.levirestaurants.fi/ravintolat/palovartija.html"
  }
},
{
  "type": "node",
  "id": 255329160,
  "lat": 62.2279338,
  "lon": 25.7716854,
  "tags": {
    "amenity": "cafe",
    "name": "Kuokkalan Konditoria Pizzeria",
    "website": "http://www.linkkihakemisto.net/kuokkalankonditoria/"
  }
},
{
  "type": "node",
  "id": 256827522,
  "lat": 62.6700778,
  "lon": 30.9347159,
  "tags": {
    "amenity": "cafe",
    "name": "Leipomon baari",
    "opening_hours": "Mo-Fr 06:00-17:00; Sa 08:30-14:00; Su off",
    "outdoor_seating": "yes"
  }
},
{
  "type": "node",
  "id": 257432417,
  "lat": 60.3589105,
  "lon": 29.5298674,
  "tags": {
    "amenity": "cafe",
    "name": "Авро",
    "name:en": "Avro",
    "name:ru": "Авро",
    "url": "http://www.avroholding.com/services.aspx?pid=17"
  }
},
{
  "type": "node",
  "id": 258122668,
  "lat": 59.9592619,
  "lon": 30.3119900,
  "tags": {
    "amenity": "cafe",
    "name": "Слойка",
    "opening_hours": "Mo-Fr 09:00-19:00; Sa,Su off"
  }
},
{
  "type": "node",
  "id": 260241914,
  "lat": 62.5994120,
  "lon": 29.7633376,
  "tags": {
    "addr:city": "Joensuu",
    "addr:housenumber": "1",
    "addr:postcode": "80100",
    "addr:street": "Koskikatu",
    "amenity": "cafe",
    "cuisine": "carelian",
    "name": "Kauppaneuvoksen kahvila",
    "opening_hours": "Mo-Fr 10:00-17:00; Sa 10:00-15:00",
    "opening_hours:covid19": "off"
  }
},
{
  "type": "node",
  "id": 260423155,
  "lat": 62.6015543,
  "lon": 29.7642095,
  "tags": {
    "amenity": "cafe",
    "brand": "Coffee House",
    "brand:wikidata": "Q11855430",
    "brand:wikipedia": "fi:Coffee House",
    "cuisine": "coffee_shop",
    "name": "Coffee House",
    "opening_hours": "Mo-Fr 07:30-21:00; Sa 09:00-21:00; Su 10:00-19:00",
    "outdoor_seating": "yes",
    "takeaway": "yes",
    "wheelchair": "yes"
  }
},
{
  "type": "node",
  "id": 260423989,
  "lat": 62.6017993,
  "lon": 29.7632222,
  "tags": {
    "access:covid19": "yes",
    "amenity": "cafe",
    "cuisine": "donut",
    "delivery:covid19": "yes",
    "level": "0",
    "name": "Arnolds Bakery & Coffee",
    "opening_hours": "Mo-Fr 09:00-19:00; Sa 9:00-17:00",
    "opening_hours:covid19": "open",
    "takeaway": "yes",
    "takeaway:covid19": "yes"
  }
},
{
  "type": "node",
  "id": 260423993,
  "lat": 62.6024282,
  "lon": 29.7621914,
  "tags": {
    "addr:city": "Joensuu",
    "addr:housenumber": "27",
    "addr:postcode": "80100",
    "addr:street": "Kauppakatu",
    "amenity": "cafe",
    "email": "info@trattoriaotto.fi",
    "name": "Otto Trattoria & Caffé",
    "opening_hours": "Mo-Fr 10:00-20:00; Sa 11:00-20:00",
    "opening_hours:covid19": "off",
    "phone": "+358 50 514 0899",
    "website": "http://www.trattoriaotto.fi/",
    "wheelchair": "no"
  }
},
{
  "type": "node",
  "id": 261026894,
  "lat": 61.5877536,
  "lon": 23.2323817,
  "tags": {
    "amenity": "cafe",
    "created_by": "Potlatch 0.8c",
    "name": "Pylsyn Maisemakahvila"
  }
},
{
  "type": "node",
  "id": 262312282,
  "lat": 64.1374464,
  "lon": 28.2647867,
  "tags": {
    "amenity": "cafe",
    "created_by": "JOSM",
    "name": "Pirtti"
  }
},
{
  "type": "node",
  "id": 262387245,
  "lat": 60.4226845,
  "lon": 22.0941696,
  "tags": {
    "addr:housenumber": "59",
    "addr:postcode": "20100",
    "addr:street": "Saarontie",
    "amenity": "cafe",
    "cuisine": "local",
    "internet_access": "wlan",
    "is_in": "Turku, Finland",
    "name": "Villa Saaro",
    "opening_hours": "Mo-Su 09:00-21:00"
  }
},
{
  "type": "node",
  "id": 262485777,
  "lat": 64.1281381,
  "lon": 28.2676272,
  "tags": {
    "amenity": "cafe",
    "name": "Ripa's"
  }
},
{
  "type": "node",
  "id": 265595733,
  "lat": 60.4013980,
  "lon": 25.6851149,
  "tags": {
    "addr:housenumber": "8",
    "addr:postcode": "06150",
    "addr:street": "Loviisantie",
    "amenity": "cafe",
    "email": "posti@mikrokulma.fi",
    "is_in": "Porvoo",
    "name": "Mikrokulma",
    "opening_hours": "Mo-Fr 08:00-18:00; Sa 09:00-15:00; Su off",
    "phone": "0207 598 020"
  }
},
{
  "type": "node",
  "id": 267022072,
  "lat": 60.2487138,
  "lon": 24.5919487,
  "tags": {
    "amenity": "cafe",
    "created_by": "Potlatch 0.9b",
    "name": "Nuuksion ulkoilumaja",
    "url": "http://www.nuuksionmaja.com"
  }
},
{
  "type": "node",
  "id": 267138070,
  "lat": 60.1957890,
  "lon": 25.0030528,
  "tags": {
    "amenity": "cafe",
    "created_by": "Potlatch 0.10b",
    "is_in": "Kivinokka, Helsinki, Finland",
    "name": "Maijan taidekahvila",
    "tourism": "attraction"
  }
},
{
  "type": "node",
  "id": 267882754,
  "lat": 60.4502767,
  "lon": 22.2662705,
  "tags": {
    "addr:city": "Turku",
    "addr:country": "FI",
    "amenity": "cafe"
  }
},
{
  "type": "node",
  "id": 274899445,
  "lat": 67.9481054,
  "lon": 23.9967306,
  "tags": {
    "addr:postcode": "99300",
    "amenity": "cafe",
    "name": "Tunturiporo",
    "opening_hours": "Mo-Fr 10:00-17:00",
    "shop": "butcher",
    "snowmobile": "yes",
    "website": "http://www.tunturiporo.fi/"
  }
},
{
  "type": "node",
  "id": 276985469,
  "lat": 59.9841766,
  "lon": 24.4238580,
  "tags": {
    "amenity": "cafe",
    "name": "Porkkala Marin",
    "shop": "convenience",
    "source": "local knowledge"
  }
},
{
  "type": "node",
  "id": 277379306,
  "lat": 63.8359889,
  "lon": 23.1361303,
  "tags": {
    "addr:city": "Kokkola",
    "addr:housenumber": "1",
    "addr:postcode": "67100",
    "addr:street": "Tehtaankatu",
    "amenity": "cafe",
    "is_in": "Kokkola, Finland",
    "lunch": "yes",
    "name": "HHcafe",
    "opening_hours": "Mo-Fr 08:00-20:00; Sa 08:00-20:00"
  }
},
{
  "type": "node",
  "id": 277895400,
  "lat": 60.4032085,
  "lon": 25.1006512,
  "tags": {
    "addr:city": "Kerava",
    "addr:housenumber": "8",
    "addr:postcode": "04200",
    "addr:street": "Kauppakaari",
    "amenity": "cafe",
    "contact:website": "http://www.kulmakonditoria.fi/",
    "name": "Kulmakonditoria",
    "opening_hours": "Mo-Sa 09:00-20:00; Su 10:00-18:00",
    "outdoor_seating": "yes",
    "phone": "040 7110 114"
  }
},
{
  "type": "node",
  "id": 278159978,
  "lat": 62.6421170,
  "lon": 25.6944405,
  "tags": {
    "addr:city": "Äänekoski",
    "addr:country": "FI",
    "addr:housenumber": "468",
    "addr:postcode": "44150",
    "addr:street": "Ouluntie",
    "amenity": "cafe",
    "name": "SEO Äänekoski Mämmensalmi",
    "note:fi": "Neste vaihtui Seoksi 2.5.2011",
    "opening_hours": "?? Mo-Fr 09:00-20:00; Sa 09:00-18:00; Su 10:00-20:00",
    "phone": "+358-14-585566",
    "snowmobile": "yes"
  }
},
{
  "type": "node",
  "id": 279625777,
  "lat": 60.1509152,
  "lon": 24.7564590,
  "tags": {
    "amenity": "cafe",
    "name": "Café Merenneito"
  }
},
{
  "type": "node",
  "id": 279736253,
  "lat": 60.1887782,
  "lon": 24.9299875,
  "tags": {
    "addr:city": "Helsinki",
    "addr:country": "FI",
    "addr:street": "Hammarskiöldintie",
    "amenity": "cafe",
    "seasonal:summer": "yes",
    "seasonal:winter": "no"
  }
},
{
  "type": "node",
  "id": 281273718,
  "lat": 59.9727081,
  "lon": 23.4313067,
  "tags": {
    "addr:housenumber": "5",
    "addr:street": "Bastugatan",
    "amenity": "cafe",
    "name": "Café Gamla Stan",
    "opening_hours": "Mo-Su 11:00-19:00",
    "opening_hours:covid19": "open",
    "outdoor_seating": "yes",
    "seasonal": "summer",
    "smoking": "no"
  }
},
{
  "type": "node",
  "id": 281274000,
  "lat": 59.9744876,
  "lon": 23.4347971,
  "tags": {
    "amenity": "cafe",
    "name": "Café Schjerfbeck"
  }
},
{
  "type": "node",
  "id": 281435178,
  "lat": 63.8365800,
  "lon": 22.9026582,
  "tags": {
    "addr:city": "Öja",
    "addr:housenumber": "454",
    "addr:postcode": "68859",
    "addr:street": "Öjantie",
    "amenity": "cafe",
    "name": "Café Bryggan",
    "website": "https://cafebryggan.fi/"
  }
},
{
  "type": "node",
  "id": 282026041,
  "lat": 61.4963068,
  "lon": 25.9785676,
  "tags": {
    "amenity": "cafe",
    "name": "Savulohi- ja kahvipaikka"
  }
},
{
  "type": "node",
  "id": 283408112,
  "lat": 60.2210371,
  "lon": 24.9162233,
  "tags": {
    "addr:city": "Helsinki",
    "addr:housenumber": "9",
    "addr:postcode": "00620",
    "addr:street": "Metsäläntie",
    "alt_name": "Maunulan Ulkoilumaja",
    "amenity": "cafe",
    "diet:halal": "no",
    "diet:kosher": "no",
    "diet:vegan": "yes",
    "diet:vegetarian": "yes",
    "name": "Maunulan Maja",
    "name:fi": "Maunulan Maja",
    "name:sv": "Raststugan i Månsas",
    "opening_hours": "We,Th 13:00-19:00; Sa,Su 10:00-16:00; Mo,Tu,Fr off",
    "outdoor_seating": "yes",
    "piste:amenity": "cafe",
    "url": "http://www.helsinginlatu.fi/yhdistyksen_esittely/yhteystiedot2/mm/",
    "wikidata": "Q11881800",
    "wikipedia": "fi:Maunulan maja"
  }
},
{
  "type": "node",
  "id": 283720029,
  "lat": 61.1162516,
  "lon": 28.5824755,
  "tags": {
    "addr:city": "Joutseno",
    "addr:housenumber": "415",
    "addr:postcode": "54100",
    "addr:street": "Vesikkolantie",
    "amenity": "cafe",
    "name": "Kahvio Korpikeidas",
    "website": "https://korpikeidas.fi/",
    "wheelchair": "limited"
  }
},
{
  "type": "node",
  "id": 286385002,
  "lat": 63.8241809,
  "lon": 20.2630492,
  "tags": {
    "amenity": "cafe",
    "name": "Nya Station",
    "phone": "+46 70 230 30 99",
    "website": "https://nyastation.se/",
    "wheelchair": "yes"
  }
},
{
  "type": "node",
  "id": 287018292,
  "lat": 61.3560179,
  "lon": 22.9387128,
  "tags": {
    "amenity": "cafe",
    "is_in:country": "Finland",
    "is_in:town": "Sastamala",
    "name": "Kahvio Mieli-Aitta",
    "url": "http://www.mieliaitta.com/rakennus_kahvio.html",
    "url:de": "http://www.mieliaitta.com/auf_deutsch.html",
    "url:en": "http://www.mieliaitta.com/in_english.html",
    "url:fi": "http://www.mieliaitta.com/rakennus_kahvio.html"
  }
},
{
  "type": "node",
  "id": 290725047,
  "lat": 62.0023445,
  "lon": 26.6587647,
  "tags": {
    "amenity": "cafe",
    "is_in": "Kangasniemi, Finland",
    "name": "Teboilin kahvio",
    "snowmobile": "yes",
    "website": "fi-fi.facebook.com/TeboilKangasniemi/"
  }
},
{
  "type": "node",
  "id": 290771083,
  "lat": 61.9900229,
  "lon": 26.6429012,
  "tags": {
    "addr:housenumber": "1,3",
    "addr:street": "Otto Mannisen tie",
    "amenity": "cafe",
    "is_in": "Kangasniemi, Finland",
    "name": "Kahvila Ruusukuppi",
    "phone": "+358 40 700 6688"
  }
},
{
  "type": "node",
  "id": 290801011,
  "lat": 61.5790414,
  "lon": 26.0082190,
  "tags": {
    "addr:city": "Hartola",
    "addr:country": "FI",
    "amenity": "cafe",
    "is_in": "Hartola, Finland",
    "name": "Jari-Pekan kahvio",
    "phone": "+358 03 716 1268",
    "website": "www.jari-pekka.fi/hartola/"
  }
},
{
  "type": "node",
  "id": 293110667,
  "lat": 64.2214675,
  "lon": 27.7470984,
  "tags": {
    "addr:city": "Kajaani",
    "addr:country": "FI",
    "amenity": "cafe",
    "date": "2008-08-29",
    "diet:vegan": "yes",
    "diet:vegetarian": "yes",
    "is_in": "Kajaani, Finland",
    "name": "Hesburger Kajaani Prisma",
    "source": "Hesburger import"
  }
},
{
  "type": "node",
  "id": 293387041,
  "lat": 60.4382291,
  "lon": 25.1308594,
  "tags": {
    "amenity": "cafe"
  }
},
{
  "type": "node",
  "id": 293891641,
  "lat": 61.0784678,
  "lon": 26.1266430,
  "tags": {
    "addr:housenumber": "1153",
    "addr:street": "Vuolenkoskentie",
    "amenity": "cafe",
    "name": "Peurankello"
  }
},
{
  "type": "node",
  "id": 293904706,
  "lat": 60.8074700,
  "lon": 28.7170905,
  "tags": {
    "amenity": "cafe"
  }
},
{
  "type": "node",
  "id": 295220031,
  "lat": 63.8262068,
  "lon": 20.2615660,
  "tags": {
    "amenity": "cafe",
    "name": "Nya konditoriet",
    "wheelchair": "no"
  }
},
{
  "type": "node",
  "id": 295220035,
  "lat": 63.8289466,
  "lon": 20.2655241,
  "tags": {
    "addr:country": "SE",
    "addr:housenumber": "15",
    "addr:street": "Rådhusesplanaden",
    "amenity": "cafe",
    "email": "info@mekka.se",
    "name": "Mekka",
    "opening_hours": "Mo-Fr 07:00-18:00; Sa 09:00-18:00; Su 10:00-18:00",
    "opening_hours:url": "http://mekka.se/oppettider/",
    "phone": "+4690774404",
    "website": "https://mekka.se/"
  }
},
{
  "type": "node",
  "id": 295381310,
  "lat": 61.5187015,
  "lon": 23.8735879,
  "tags": {
    "addr:housenumber": "80",
    "addr:street": "Pikku-Niihamantie",
    "amenity": "cafe",
    "contact:website": "http://www.niihamanmaja.fi/",
    "name": "Niihaman ulkoilumaja",
    "opening_hours": "Mo-Su 10:00-20:00",
    "tourism": "attraction"
  }
},
{
  "type": "node",
  "id": 295565475,
  "lat": 63.5213281,
  "lon": 22.6921055,
  "tags": {
    "amenity": "cafe",
    "name": "Emma"
  }
},
{
  "type": "node",
  "id": 296304342,
  "lat": 60.4503889,
  "lon": 22.2756098,
  "tags": {
    "addr:housenumber": "3",
    "addr:postcode": "20500",
    "addr:street": "Vanha Suurtori",
    "amenity": "cafe",
    "contact:website": "http://www.kirjakahvila.org/",
    "diet:halal": "no",
    "diet:kosher": "no",
    "diet:vegan": "only",
    "diet:vegetarian": "only",
    "identity": "solidarity_economy;commons;economy_for_the_common_good;collaborative_economy",
    "interaction": "buying_and_selling;sharing;gifting;diy_and_dit",
    "internet_access": "wlan",
    "internet_access:fee": "no",
    "name": "Kirjakahvila",
    "name:sv": "Bokcafé",
    "provides": "food+drink;culture;learning_opportunities;community;participation",
    "website": "http://www.kirjakahvila.org/"
  }
},
{
  "type": "node",
  "id": 296305099,
  "lat": 60.4481508,
  "lon": 22.2696310,
  "tags": {
    "addr:city": "Turku",
    "addr:country": "FI",
    "amenity": "cafe",
    "diet:halal": "no",
    "diet:kosher": "no",
    "name": "Cafe Paawo",
    "seasonal": "summer"
  }
},
{
  "type": "node",
  "id": 297493928,
  "lat": 61.4963185,
  "lon": 23.7319211,
  "tags": {
    "addr:city": "Tampere",
    "addr:country": "FI",
    "addr:housenumber": "20",
    "addr:postcode": "33230",
    "addr:street": "Näkötornintie",
    "amenity": "cafe",
    "cuisine": "coffee_shop",
    "diet:vegan": "yes",
    "diet:vegetarian": "yes",
    "ele": "152",
    "internet_access": "no",
    "name": "Munkkikahvila",
    "opening_hours": "9:00-21:00",
    "outdoor_seating": "yes",
    "phone": "+35832123247",
    "smoking": "no",
    "url": "http://www.munkkikahvila.net",
    "website": "https://www.munkkikahvila.net/?page=1",
    "wikidata": "Q3533268",
    "wikipedia": "fi:Pyynikin näkötorni"
  }
},
{
  "type": "node",
  "id": 297921009,
  "lat": 60.1807779,
  "lon": 24.8499702,
  "tags": {
    "addr:housenumber": "1",
    "addr:street": "Lehtisaarentie",
    "amenity": "cafe",
    "cuisine": "coffee_shop",
    "diet:halal": "no",
    "diet:kosher": "no",
    "email": "info@majacoffee.fi",
    "name": "Maja Coffee Roastery",
    "opening_hours": "We-Fr 12:00-17:00; Sa 12:00-16:30",
    "phone": "+358403526814",
    "website": "http://www.majacoffee.fi"
  }
},
{
  "type": "node",
  "id": 297971704,
  "lat": 60.6296462,
  "lon": 24.8575264,
  "tags": {
    "amenity": "cafe",
    "cuisine": "international",
    "internet_access": "wlan",
    "name": "Medicin Man"
  }
},
{
  "type": "node",
  "id": 297972007,
  "lat": 60.6296420,
  "lon": 24.8584310,
  "tags": {
    "amenity": "cafe",
    "name": "Zoom"
  }
},
{
  "type": "node",
  "id": 304922665,
  "lat": 61.0053543,
  "lon": 24.4561463,
  "tags": {
    "amenity": "cafe",
    "name": "Café Katri"
  }
},
{
  "type": "node",
  "id": 304922666,
  "lat": 60.9963709,
  "lon": 24.4647705,
  "tags": {
    "addr:city": "Hämeenlinna",
    "addr:postcode": "13100",
    "addr:street": "Raatihuoneenkatu",
    "amenity": "cafe",
    "diet:halal": "no",
    "diet:kosher": "no",
    "name": "Torikahvila Café Linna - Open air café",
    "website": "http://www.visithameenlinna.fi/en/services/torikahvila-cafe-linna/",
    "wheelchair": "limited"
  }
},
{
  "type": "node",
  "id": 305880722,
  "lat": 59.9545047,
  "lon": 30.3205088,
  "tags": {
    "addr:city": "Санкт-Петербург",
    "addr:housenumber": "3Г",
    "addr:place": "Александровский парк",
    "amenity": "cafe",
    "cuisine": "coffee_shop",
    "diet:vegan": "yes",
    "diet:vegetarian": "yes",
    "internet_access": "wlan",
    "name": "Больше Кофе!",
    "name:en": "More Coffee",
    "opening_hours": "Mo-Th 10:00-22:00; Fr 10:00-23:00; Sa,Su 11:00-23:00",
    "outdoor_seating": "yes",
    "smoking": "no",
    "source": "https://vk.com/morecoffee",
    "wheelchair": "limited"
  }
},
{
  "type": "node",
  "id": 307465178,
  "lat": 60.1689130,
  "lon": 24.9517450,
  "tags": {
    "addr:city": "Helsinki",
    "addr:country": "FI",
    "addr:housenumber": "26",
    "addr:postcode": "00170",
    "addr:street": "Aleksanterinkatu",
    "amenity": "cafe",
    "diet:halal": "no",
    "diet:kosher": "no",
    "name": "Cafe Engel",
    "opening_hours": "Mo-Fr 08:00-21:00; Sa 09:00-21:00; Su 10:00-19:00",
    "phone": "+3589652776",
    "wheelchair": "yes",
    "wheelchair:description": "Esteetön sisäänkäynti Sofiankadun puolelta sisäpihalta. Wheelchair accessible door with elevator from Sofiankatu."
  }
},
{
  "type": "node",
  "id": 308700365,
  "lat": 64.4095122,
  "lon": 25.1313344,
  "tags": {
    "amenity": "cafe",
    "name": "Kahvila Kuprikka"
  }
},
{
  "type": "node",
  "id": 308776219,
  "lat": 60.2056755,
  "lon": 24.8782530,
  "tags": {
    "addr:city": "Helsinki",
    "addr:housenumber": "1",
    "addr:postcode": "00350",
    "addr:street": "Raumantie",
    "amenity": "cafe",
    "brand": "Fazer",
    "diet:halal": "no",
    "diet:kosher": "no",
    "level": "1",
    "name": "Fazer Café",
    "opening_hours": "Mo-Fr 7:30-19:30, Sa 9:00-18:00, Su 10:00-16:00",
    "phone": "09 553213",
    "website": "http://www.cafefazer.fi/",
    "wheelchair": "yes"
  }
},
{
  "type": "node",
  "id": 311101157,
  "lat": 59.9247731,
  "lon": 30.2891334,
  "tags": {
    "amenity": "cafe",
    "contact:instagram": "https://www.instagram.com/wonderful.taste.spb/",
    "name": "Wonderful Taste",
    "opening_hours": "09:00-22:00"
  }
},
{
  "type": "node",
  "id": 311747780,
  "lat": 60.1664027,
  "lon": 24.9378131,
  "tags": {
    "addr:city": "Helsinki",
    "addr:country": "FI",
    "addr:housenumber": "19",
    "addr:postcode": "00100",
    "addr:street": "Annankatu",
    "amenity": "cafe",
    "diet:halal": "no",
    "diet:kosher": "no",
    "name": "Teemaa",
    "opening_hours": "Mo-Fr 10:00-19:00; Sa-Su 12:00-18:00",
    "phone": "+358 41 435 4464",
    "shop": "tea",
    "website": "www.teemaa.com"
  }
},
{
  "type": "node",
  "id": 312509816,
  "lat": 61.0220480,
  "lon": 24.4690429,
  "tags": {
    "addr:city": "Hämeenlinna",
    "addr:postcode": "13210",
    "addr:street": "Aulangon puistometsä",
    "amenity": "cafe",
    "name": "Aulangon tornikahvila",
    "opening_hours": "May Mo-Su 12:00-17:00; Jun,Jul; aug Mo-Su 11:00-19:00",
    "operator": "Tuulin Tornikahvila Oy",
    "phone": "+358 50 491 1128",
    "source": "http://www.aulangontornikahvila.fi/",
    "website": "http://www.aulangontornikahvila.fi/",
    "wheelchair": "yes"
  }
},
{
  "type": "node",
  "id": 313026289,
  "lat": 60.6391826,
  "lon": 26.2284422,
  "tags": {
    "addr:housenumber": "996",
    "addr:street": "Helsingintie",
    "amenity": "cafe",
    "cuisine": "fish",
    "name": "Fisherman's Food",
    "opening_hours": "Mo-Th 09:00-18:00; Fr 09:00-20:00; Sa 09:00-15:00; Su off",
    "phone": "044 026 1665",
    "shop": "seafood",
    "website": "https://fishermans.fi/"
  }
},
{
  "type": "node",
  "id": 313675997,
  "lat": 63.0954716,
  "lon": 21.6134633,
  "tags": {
    "amenity": "cafe",
    "level": "0",
    "name": "Arnold's",
    "wheelchair": "yes"
  }
},
{
  "type": "node",
  "id": 315892730,
  "lat": 61.4781820,
  "lon": 23.5127043,
  "tags": {
    "amenity": "cafe"
  }
},
{
  "type": "node",
  "id": 316480983,
  "lat": 60.8547950,
  "lon": 24.5968974,
  "tags": {
    "addr:housenumber": "1426",
    "addr:postcode": "12400",
    "addr:street": "Helsingintie",
    "amenity": "cafe",
    "cuisine": "coffee_shop",
    "name": "Take Away Linnatuuli",
    "opening_hours": "24/7",
    "website": "https://linnatuuli.fi/suomi/kahvila.html"
  }
},
{
  "type": "node",
  "id": 317766538,
  "lat": 60.1710850,
  "lon": 24.9409680,
  "tags": {
    "addr:city": "Helsinki",
    "addr:country": "FI",
    "addr:housenumber": "1",
    "addr:postcode": "00100",
    "addr:street": "Asemahalli, Kaivokatu",
    "amenity": "cafe",
    "cuisine": "coffee_shop",
    "diet:halal": "no",
    "diet:kosher": "no",
    "name": "Robert's Coffee",
    "website": "https://robertscoffee.com/",
    "wheelchair": "yes"
  }
},
{
  "type": "node",
  "id": 322049855,
  "lat": 59.9554791,
  "lon": 30.2960086,
  "tags": {
    "amenity": "cafe",
    "name": "Irish"
  }
},
{
  "type": "node",
  "id": 324160086,
  "lat": 60.1714292,
  "lon": 24.9265315,
  "tags": {
    "addr:city": "Helsinki",
    "addr:country": "FI",
    "amenity": "cafe",
    "diet:halal": "no",
    "diet:kosher": "no",
    "name": "Cafe Red"
  }
},
{
  "type": "node",
  "id": 329434618,
  "lat": 60.1026202,
  "lon": 24.4646272,
  "tags": {
    "amenity": "cafe"
  }
},
{
  "type": "node",
  "id": 331209231,
  "lat": 65.0815988,
  "lon": 25.5471585,
  "tags": {
    "amenity": "cafe",
    "name": "Auranmaja",
    "note": "only occationally open",
    "piste:amenity": "cafe"
  }
},
{
  "type": "node",
  "id": 331297939,
  "lat": 59.6934373,
  "lon": 30.1792749,
  "tags": {
    "amenity": "cafe",
    "name": "Туутари-парк"
  }
},
{
  "type": "node",
  "id": 332262951,
  "lat": 59.9609368,
  "lon": 30.3147541,
  "tags": {
    "amenity": "cafe",
    "cuisine": "gyros",
    "name": "Greek roll",
    "opening_hours": "10:00-22:00",
    "phone": "+7 950 0037647",
    "takeaway": "yes"
  }
},
{
  "type": "node",
  "id": 332263256,
  "lat": 59.9611742,
  "lon": 30.3158122,
  "tags": {
    "amenity": "cafe",
    "breakfast": "Mo-Fr 09:00-16:00; Sa-Su 10:00-16:00",
    "cuisine": "coffee_shop",
    "name": "Coffee Room",
    "opening_hours": "Mo-Fr 09:00-23:00; Sa-Su 10:00-23:00",
    "operator": "Афонин Тимофей Константинович",
    "operator:ref:inn": "250714852801",
    "payment:cash": "yes",
    "payment:maestro": "yes",
    "payment:mastercard": "yes",
    "payment:visa": "yes",
    "payment:visa_electron": "yes",
    "phone": "+7 981 9847000"
  }
},
{
  "type": "node",
  "id": 332269019,
  "lat": 59.9675752,
  "lon": 30.3092970,
  "tags": {
    "amenity": "cafe",
    "name": "Марка",
    "opening_hours": "24/7"
  }
},
{
  "type": "node",
  "id": 334305843,
  "lat": 59.9664043,
  "lon": 30.3011217,
  "tags": {
    "amenity": "cafe",
    "name": "Кондитерская Гастрономия",
    "opening_hours": "Mo-Fr 09:00-20:00; Sa 11:00-19:00"
  }
},
{
  "type": "node",
  "id": 336235835,
  "lat": 60.3137167,
  "lon": 25.1132290,
  "tags": {
    "addr:city": "Vantaa",
    "addr:housenumber": "3",
    "addr:postcode": "01260",
    "addr:street": "Kuusijärventie",
    "amenity": "cafe",
    "email": "info@cafekuusijarvi.fi",
    "name": "Cafe Kuusijärvi",
    "name:en": "Café & Lunch Kuusijärvi",
    "name:fi": "Kuusijärven Kahvila",
    "opening_hours": "Mo-Su 09:00-21:00",
    "phone": "+358 10 322 7090",
    "piste:amenity": "cafe",
    "source": "survey",
    "website": "https://www.cafekuusijarvi.fi/english/"
  }
},
{
  "type": "node",
  "id": 339806091,
  "lat": 61.1833775,
  "lon": 24.0442956,
  "tags": {
    "amenity": "cafe",
    "name": "Kahvila Silta",
    "opening_hours": "Mo-Su 11:00-20:00",
    "opening_hours:covid19": "same",
    "outdoor_seating": "yes",
    "phone": "+358465607514",
    "website": "http://www.saaksmaensilta.com/"
  }
},
{
  "type": "node",
  "id": 339989946,
  "lat": 60.2935681,
  "lon": 25.0355622,
  "tags": {
    "addr:city": "Vantaa",
    "addr:housenumber": "13",
    "addr:postcode": "01300",
    "addr:street": "Tikkuraitti",
    "amenity": "cafe",
    "diet:halal": "no",
    "diet:kosher": "no",
    "internet_access": "terminal",
    "name": "Blablabla eatery, bar & cafe",
    "opening_hours": "Mo-Fr 09:00-19:00; Sa 11:00-18:00",
    "phone": "0505627552",
    "ref": "Tikkuraitti",
    "website": "https://www.blablabla.fi/"
  }
},
{
  "type": "node",
  "id": 340937836,
  "lat": 60.1715619,
  "lon": 24.9567948,
  "tags": {
    "addr:city": "Helsinki",
    "addr:country": "FI",
    "addr:housenumber": "13",
    "addr:postcode": "00170",
    "addr:street": "Mariankatu",
    "addr:unit": "b",
    "amenity": "cafe",
    "diet:halal": "no",
    "diet:kosher": "no",
    "name": "Qulma",
    "opening_hours": "Mo-Fr 08:00-17:00",
    "website": "http://www.qulma.fi/"
  }
},
{
  "type": "node",
  "id": 345585889,
  "lat": 61.6889110,
  "lon": 27.2818400,
  "tags": {
    "addr:city": "Mikkeli",
    "addr:housenumber": "3",
    "addr:postcode": "50100",
    "addr:street": "Laiturikatu",
    "amenity": "cafe",
    "email": "paavo@citikka.fi",
    "facebook": "https://www.facebook.com/satamacafebistro/",
    "name": "Satama Cafe & Bistro",
    "phone": "+358 50 555 2118",
    "seasonal:summer": "yes",
    "seasonal:winter": "no",
    "website": "https://satamabistro.fi/"
  }
},
{
  "type": "node",
  "id": 348998304,
  "lat": 62.6988347,
  "lon": 25.2807011,
  "tags": {
    "amenity": "cafe",
    "name": "Ranta-Kivi",
    "old_name": "Rantaesson kahvila",
    "snowmobile": "yes",
    "website": "www.facebook.com/RantaKivi"
  }
},
{
  "type": "node",
  "id": 350514865,
  "lat": 63.8350325,
  "lon": 23.1227425,
  "tags": {
    "amenity": "cafe",
    "is_in": "Kokkola, Finland",
    "name": "Makasiini-Kahvila",
    "source": "survey"
  }
},
{
  "type": "node",
  "id": 352757123,
  "lat": 66.5026826,
  "lon": 25.7253998,
  "tags": {
    "amenity": "cafe",
    "created_by": "Potlatch 0.10f",
    "name": "Zone café"
  }
},
{
  "type": "node",
  "id": 352757293,
  "lat": 66.5028777,
  "lon": 25.7258032,
  "tags": {
    "amenity": "cafe",
    "created_by": "Potlatch 0.10f",
    "name": "Café Break"
  }
},
{
  "type": "node",
  "id": 353172696,
  "lat": 62.4637454,
  "lon": 26.8353162,
  "tags": {
    "addr:city": "Rautalampi",
    "addr:country": "FI",
    "addr:housenumber": "624",
    "addr:postcode": "77700",
    "addr:street": "Ysitie",
    "amenity": "cafe",
    "name": "Tiinan tupa",
    "opening_hours": "Mo-Su 10:00-18:00",
    "phone": "+358 40 5542 147",
    "snowmobile": "yes",
    "website": "www.tiinantupa.com"
  }
},
{
  "type": "node",
  "id": 355280520,
  "lat": 59.9571060,
  "lon": 30.3130787,
  "tags": {
    "amenity": "cafe",
    "contact:email": "damask-spb@yandex.ru",
    "contact:phone": "+7 812 4985588;+7 965 7698173",
    "contact:website": "http://damask-spb.ru",
    "level": "-1",
    "name": "Дамаск",
    "name:ar": "دمشق",
    "outdoor_seating": "no",
    "wheelchair": "no"
  }
},
{
  "type": "node",
  "id": 355559758,
  "lat": 65.0123733,
  "lon": 25.4720474,
  "tags": {
    "addr:city": "Oulu",
    "addr:country": "FI",
    "amenity": "cafe",
    "brand": "Coffee House",
    "diet:halal": "no",
    "diet:kosher": "no",
    "name": "Coffee House"
  }
},
{
  "type": "node",
  "id": 355701983,
  "lat": 67.8054312,
  "lon": 24.8071817,
  "tags": {
    "addr:city": "Levi",
    "addr:country": "FI",
    "amenity": "cafe",
    "brand": "Coffee House",
    "name": "Coffee House",
    "source": "survey"
  }
},
{
  "type": "node",
  "id": 358472600,
  "lat": 60.2047407,
  "lon": 25.0342291,
  "tags": {
    "amenity": "cafe",
    "cuisine": "coffee_shop",
    "diet:halal": "no",
    "diet:kosher": "no",
    "name": "Cafe Erätori",
    "note": "Nimi vaihtunut kesäkuussa 2010, oli aikaisemmin Limone",
    "phone": "+358 41 547 8731"
  }
},
{
  "type": "node",
  "id": 359570349,
  "lat": 60.1488160,
  "lon": 24.9854076,
  "tags": {
    "addr:city": "Helsinki",
    "addr:country": "FI",
    "addr:housename": "Rantakasarmi",
    "addr:housenumber": "C 1",
    "addr:postcode": "00190",
    "addr:street": "Suomenlinna",
    "amenity": "cafe",
    "name": "Viaporin Deli & Café",
    "opening_hours": "Mo-Su 11:00-18:00",
    "website": "https://www.panimo.com/"
  }
},
{
  "type": "node",
  "id": 360714153,
  "lat": 60.1207184,
  "lon": 29.9424779,
  "tags": {
    "amenity": "cafe"
  }
},
{
  "type": "node",
  "id": 364366503,
  "lat": 63.0978698,
  "lon": 21.6162525,
  "tags": {
    "amenity": "cafe",
    "is_in": "Vaasa, Finland",
    "name": "Tammipihan bakery&cafe",
    "shop": "bakery"
  }
},
{
  "type": "node",
  "id": 366867295,
  "lat": 60.1579505,
  "lon": 24.9355791,
  "tags": {
    "addr:city": "Helsinki",
    "addr:country": "FI",
    "addr:housenumber": "25",
    "addr:postcode": "00150",
    "addr:street": "Tehtaankatu",
    "amenity": "cafe",
    "diet:halal": "no",
    "diet:kosher": "no",
    "name": "Caffe Nonna",
    "opening_hours": "Mo-Fr 06:00-17:00"
  }
},
{
  "type": "node",
  "id": 368291252,
  "lat": 60.2370789,
  "lon": 24.8913647,
  "tags": {
    "addr:city": "Helsinki",
    "addr:housename": "Kaari",
    "addr:housenumber": "1",
    "addr:postcode": "00420",
    "addr:street": "Kantelettarentie",
    "amenity": "cafe",
    "branch": "Kannelmäki",
    "brand": "Coffee House",
    "brand:wikidata": "Q11855430",
    "brand:wikipedia": "fi:Coffee House",
    "cuisine": "coffee_shop",
    "diet:halal": "no",
    "diet:kosher": "no",
    "diet:vegetarian": "yes",
    "level": "0",
    "name": "Coffee House",
    "opening_hours": "Mo-Fr 08:30-19:00; Sa 09:00-18:00; Su 11:00-18:00",
    "phone": "+358 10 766 3868",
    "takeaway": "yes",
    "website": "https://www.raflaamo.fi/fi/helsinki/coffee-house-kannelmaki-helsinki/",
    "wheelchair": "yes"
  }
},
{
  "type": "node",
  "id": 370749468,
  "lat": 60.8923983,
  "lon": 25.7037889,
  "tags": {
    "amenity": "cafe",
    "name": "Myötätuuli",
    "shop": "kiosk"
  }
},
{
  "type": "node",
  "id": 370892673,
  "lat": 60.1982256,
  "lon": 24.8764194,
  "tags": {
    "addr:city": "Helsinki",
    "addr:postcode": "00330",
    "addr:street": "Laajalahden aukio",
    "amenity": "cafe",
    "diet:halal": "no",
    "diet:kosher": "no",
    "name": "Puukioski Munkkiniemi",
    "opening_hours": "Mo-Fr 10:00-21:00; Sa-Su 11:00-21:00",
    "seasonal": "spring-autumn",
    "shop": "kiosk",
    "website": "https://www.puukioskimunkkiniemi.com/"
  }
},
{
  "type": "node",
  "id": 375977596,
  "lat": 60.2137314,
  "lon": 25.0886684,
  "tags": {
    "amenity": "cafe",
    "brand": "Presso",
    "diet:halal": "no",
    "diet:kosher": "no",
    "name": "Presso",
    "wheelchair": "yes"
  }
},
{
  "type": "node",
  "id": 380355219,
  "lat": 66.7760475,
  "lon": 23.9649582,
  "tags": {
    "addr:city": "Pello",
    "addr:country": "FI",
    "addr:postcode": "95700",
    "amenity": "cafe",
    "name": "Shell Pello",
    "snowmobile": "yes",
    "website": "www.st1.fi/index.php?id=309&station=11190"
  }
},
{
  "type": "node",
  "id": 380640477,
  "lat": 68.0590494,
  "lon": 24.0548974,
  "tags": {
    "amenity": "cafe",
    "name": "Romanssikahvila",
    "payment:cash": "yes",
    "payment:credit_cards": "yes",
    "payment:debit_cards": "yes"
  }
},
{
  "type": "node",
  "id": 385122705,
  "lat": 60.2504935,
  "lon": 22.2408268,
  "tags": {
    "addr:city": "Parainen",
    "addr:housenumber": "1",
    "addr:postcode": "21600",
    "addr:street": "Sattmark",
    "amenity": "cafe",
    "diet:vegetarian": "yes",
    "key": "souvenirs",
    "name": "Sattmark",
    "opening_hours": "Avataan vappuna 2021, Vi öppnar igen den första maj 2021.",
    "outdoor_seating": "yes",
    "phone": "040 482 4848",
    "website": "https://sattmark.fi/"
  }
},
{
  "type": "node",
  "id": 385707266,
  "lat": 60.3007933,
  "lon": 22.3020462,
  "tags": {
    "amenity": "cafe",
    "name": "Axo"
  }
},
{
  "type": "node",
  "id": 388314961,
  "lat": 63.6756621,
  "lon": 22.7033540,
  "tags": {
    "addr:city": "Jakobstad",
    "addr:housenumber": "14",
    "addr:postcode": "68600",
    "addr:street": "Storgatan",
    "amenity": "cafe",
    "fax": "(06) 723 3399",
    "name": "Maj's",
    "phone": "06-723 2233"
  }
},
{
  "type": "node",
  "id": 388314962,
  "lat": 63.6753667,
  "lon": 22.7038280,
  "tags": {
    "addr:city": "Jakobstad",
    "addr:postcode": "68600",
    "addr:street": "Storgatan",
    "amenity": "cafe",
    "name": "Fiika Café & Interior",
    "phone": "(06) 723 3533"
  }
},
{
  "type": "node",
  "id": 388439815,
  "lat": 63.6702797,
  "lon": 22.7144866,
  "tags": {
    "amenity": "cafe",
    "name": "Café Örtgården"
  }
},
{
  "type": "node",
  "id": 391059417,
  "lat": 63.6689993,
  "lon": 22.5474930,
  "tags": {
    "addr:city": "Jakobstad",
    "addr:postcode": "68620",
    "addr:street": "Lillsandsvägen",
    "amenity": "cafe",
    "fax": "(06) 788 7149",
    "name": "Café & Restaurant Fäboda",
    "phone": "(06) 788 7120",
    "source": "http://www.trendfaboda.fi/",
    "wheelchair": "yes"
  }
},
{
  "type": "node",
  "id": 392271640,
  "lat": 60.4487539,
  "lon": 22.2672814,
  "tags": {
    "addr:city": "Turku",
    "addr:housenumber": "13",
    "addr:postcode": "20100",
    "addr:street": "Läntinen Rantakatu",
    "addr:unit": "B",
    "amenity": "cafe",
    "cuisine": "coffee_shop",
    "delivery:covid19": "no",
    "diet:halal": "no",
    "diet:kosher": "no",
    "name": "Café Qwensel",
    "opening_hours": "Mo-Su  10:00-18:00",
    "opening_hours:covid19": "off",
    "outdoor_seating": "yes",
    "takeaway": "yes",
    "website": "https://www.cafeqwensel.fi/"
  }
},
{
  "type": "node",
  "id": 393377050,
  "lat": 61.7128214,
  "lon": 27.4540964,
  "tags": {
    "addr:city": "Rahula",
    "addr:country": "FI",
    "addr:postcode": "51720",
    "amenity": "cafe",
    "is_in": "Mikkeli, Finland",
    "name": "Olokorjaamo",
    "snowmobile": "yes"
  }
},
{
  "type": "node",
  "id": 393632984,
  "lat": 62.2360198,
  "lon": 25.9598523,
  "tags": {
    "addr:city": "Leppälahti",
    "addr:country": "FI",
    "addr:housenumber": "339",
    "addr:postcode": "41450",
    "addr:street": "Kuopiontie",
    "amenity": "cafe",
    "name": "Cafe Kaapeli",
    "outdoor_seating": "yes",
    "snowmobile": "yes",
    "source": "survey"
  }
},
{
  "type": "node",
  "id": 394830180,
  "lat": 59.9523046,
  "lon": 30.2972882,
  "tags": {
    "amenity": "cafe",
    "cuisine": "regional",
    "name": "Наш Питер"
  }
},
{
  "type": "node",
  "id": 401627284,
  "lat": 59.9136572,
  "lon": 30.3754386,
  "tags": {
    "amenity": "cafe",
    "contact:email": "Rusavs@mail.ru",
    "contact:phone": "+7 981 9578667",
    "name": "Динер холл",
    "opening_hours": "Mo-Fr 10:00-17:00",
    "operator": "Динер холл"
  }
},
{
  "type": "node",
  "id": 401627386,
  "lat": 59.9140758,
  "lon": 30.3768121,
  "tags": {
    "amenity": "cafe",
    "name": "Амилен"
  }
},
{
  "type": "node",
  "id": 408734912,
  "lat": 65.6475677,
  "lon": 27.7009474,
  "tags": {
    "amenity": "cafe",
    "name": "Seikkaileva Siili",
    "snowmobile": "yes",
    "website": "www.syotteenkylakauppa.fi/19"
  }
},
{
  "type": "node",
  "id": 410581131,
  "lat": 61.3615546,
  "lon": 26.2595345,
  "tags": {
    "amenity": "cafe",
    "name": "Baari Piriste"
  }
},
{
  "type": "node",
  "id": 412197969,
  "lat": 60.3163309,
  "lon": 24.6921911,
  "tags": {
    "amenity": "cafe",
    "name": "Luukin kahvila",
    "opening_hours": "Mo-Su 10:00-17:00",
    "was:amenity": "restaurant"
  }
},
{
  "type": "node",
  "id": 413424191,
  "lat": 63.3947308,
  "lon": 25.6429373,
  "tags": {
    "amenity": "cafe",
    "cuisine": "grill",
    "name": "Rantakeidas"
  }
},
{
  "type": "node",
  "id": 415938559,
  "lat": 60.1797009,
  "lon": 24.9233551,
  "tags": {
    "addr:city": "Helsinki",
    "addr:country": "FI",
    "addr:housenumber": "46",
    "addr:postcode": "00260",
    "addr:street": "Runeberginkatu",
    "amenity": "cafe",
    "diet:halal": "no",
    "diet:kosher": "no",
    "name": "Picnic",
    "opening_hours:covid19": "restricted",
    "takeaway:covid19": "only",
    "website": "https://www.picnic.fi/",
    "wheelchair": "limited"
  }
},
{
  "type": "node",
  "id": 417058162,
  "lat": 60.0831840,
  "lon": 24.4557268,
  "tags": {
    "amenity": "cafe",
    "name": "Maatilapuodin kotikahvila",
    "website": "https://maatilapuoti.fi/"
  }
},
{
  "type": "node",
  "id": 418597740,
  "lat": 61.4889694,
  "lon": 23.8541369,
  "tags": {
    "addr:city": "Tampere",
    "addr:housenumber": "2",
    "addr:postcode": "33560",
    "addr:street": "Ankkarinraitti",
    "amenity": "cafe",
    "cuisine": "coffee_shop",
    "description": "Vesipiippukahvila.",
    "name": "Love Coffee",
    "outdoor_seating": "yes",
    "website": "https://www.facebook.com/profile.php?id=100063041119279"
  }
},
{
  "type": "node",
  "id": 423109566,
  "lat": 60.1479701,
  "lon": 24.9851339,
  "tags": {
    "addr:city": "Helsinki",
    "addr:country": "FI",
    "addr:housenumber": "C 18 III",
    "addr:postcode": "00190",
    "addr:street": "Suomenlinna",
    "amenity": "cafe",
    "cuisine": "coffee_shop",
    "name": "Café Vanille",
    "opening_hours": "\"June, 11-18. (Closed for Midsummer ). From Midsummer on open daily between 10-19\"; Sep 11:00-17:00; Oct-May Sa,Su 11:00-17:00; Oct-May Mo-Fr unknown \"maybe, especially on a nice weather :)\"",
    "outdoor_seating": "yes",
    "phone": "+358 40 5561169",
    "website": "https://www.cafevanille.fi/",
    "wheelchair": "no"
  }
},
{
  "type": "node",
  "id": 425429462,
  "lat": 60.2084035,
  "lon": 24.9576788,
  "tags": {
    "amenity": "cafe",
    "name": "Kumpulan maauimalan kahvio"
  }
},
{
  "type": "node",
  "id": 425459736,
  "lat": 61.6425760,
  "lon": 26.7728592,
  "tags": {
    "addr:city": "Hirvensalmi",
    "addr:country": "FI",
    "addr:postcode": "52550",
    "amenity": "cafe",
    "name": "Rantamakasiini",
    "opening_hours": "\"Summer season\"",
    "seasonal:winter": "no"
  }
},
{
  "type": "node",
  "id": 425459943,
  "lat": 61.6244770,
  "lon": 26.7471391,
  "tags": {
    "addr:city": "Hirvensalmi",
    "amenity": "cafe",
    "name": "Kissakoski"
  }
},
{
  "type": "node",
  "id": 426917068,
  "lat": 65.0173568,
  "lon": 25.4681759,
  "tags": {
    "amenity": "cafe",
    "name": "Tähtitornin kahvila"
  }
},
{
  "type": "node",
  "id": 427092068,
  "lat": 59.9397604,
  "lon": 30.4755116,
  "tags": {
    "amenity": "cafe",
    "name": "Васаби"
  }
},
{
  "type": "node",
  "id": 427174239,
  "lat": 60.0675572,
  "lon": 20.2662433,
  "tags": {
    "amenity": "cafe",
    "note": "café"
  }
},
{
  "type": "node",
  "id": 428766816,
  "lat": 60.5116489,
  "lon": 25.1604165,
  "tags": {
    "amenity": "cafe",
    "name": "Pullokiska"
  }
},
{
  "type": "node",
  "id": 429324713,
  "lat": 60.2124811,
  "lon": 20.2345289,
  "tags": {
    "amenity": "cafe",
    "cuisine": "regional",
    "internet_access": "wlan",
    "internet_access:fee": "no",
    "name": "Furulundsgården",
    "name:sv": "Furulundsgården",
    "opening_hours": "Mo-Su 10:00-20:00",
    "outdoor_seating": "yes",
    "wheelchair": "yes"
  }
},
{
  "type": "node",
  "id": 430015192,
  "lat": 63.6326583,
  "lon": 22.8569166,
  "tags": {
    "addr:city": "Edsevö",
    "addr:housenumber": "2",
    "addr:postcode": "68870",
    "addr:street": "Hotellgränd",
    "amenity": "cafe",
    "name": "Neste Pedersöre",
    "opening_hours": "Mo-Fr 06:00-23:00; Sa 08:00-23:00; Su 09:00-23:00",
    "phone": "(06) 766 7930",
    "website": "https://nestepedersore.fi/"
  }
},
{
  "type": "node",
  "id": 431100875,
  "lat": 59.8963785,
  "lon": 30.4925689,
  "tags": {
    "amenity": "cafe"
  }
},
{
  "type": "node",
  "id": 432501052,
  "lat": 59.9669899,
  "lon": 30.4754165,
  "tags": {
    "amenity": "cafe",
    "name": "Барселона"
  }
},
{
  "type": "node",
  "id": 434134021,
  "lat": 66.5021087,
  "lon": 25.7309654,
  "tags": {
    "addr:housenumber": "30",
    "addr:postcode": "96200",
    "addr:street": "Maakuntakatu",
    "amenity": "cafe",
    "brand": "Coffee House",
    "brand:wikidata": "Q11855430",
    "brand:wikipedia": "fi:Coffee House",
    "cuisine": "coffee_shop",
    "name": "Coffee House",
    "opening_hours": "Mo-Fr 08:00-20:00; Sa 10:00-20:00; Su 11:00-20:00",
    "takeaway": "yes"
  }
},
{
  "type": "node",
  "id": 436628128,
  "lat": 61.9938125,
  "lon": 25.6705286,
  "tags": {
    "amenity": "cafe",
    "name": "Lossivahti"
  }
},
{
  "type": "node",
  "id": 437327743,
  "lat": 63.9848639,
  "lon": 25.7598423,
  "tags": {
    "amenity": "cafe",
    "name": "Paakarin pysäkki"
  }
},
{
  "type": "node",
  "id": 439209246,
  "lat": 59.8890128,
  "lon": 30.5143178,
  "tags": {
    "amenity": "cafe"
  }
},
{
  "type": "node",
  "id": 440175136,
  "lat": 60.4551793,
  "lon": 22.2984648,
  "tags": {
    "amenity": "cafe",
    "name": "Cafe Joutsen"
  }
},
{
  "type": "node",
  "id": 440952975,
  "lat": 62.2472517,
  "lon": 25.8760027,
  "tags": {
    "amenity": "cafe",
    "name": "Caffitella",
    "source": "survey"
  }
},
{
  "type": "node",
  "id": 441219731,
  "lat": 60.5239761,
  "lon": 26.4720192,
  "tags": {
    "amenity": "cafe",
    "name": "Pajakahvila"
  }
},
{
  "type": "node",
  "id": 441545756,
  "lat": 60.1016427,
  "lon": 23.5519674,
  "tags": {
    "amenity": "cafe"
  }
},
{
  "type": "node",
  "id": 441918700,
  "lat": 60.3185315,
  "lon": 22.9431121,
  "tags": {
    "addr:housenumber": "879",
    "addr:postcode": "25230",
    "addr:street": "Kokkilantie",
    "amenity": "cafe",
    "name": "Lossiranta",
    "website": "http://www.lossiranta.com"
  }
},
{
  "type": "node",
  "id": 441921767,
  "lat": 62.2578974,
  "lon": 24.6981966,
  "tags": {
    "addr:city": "Keuruu",
    "addr:housenumber": "20",
    "addr:postcode": "42700",
    "addr:street": "Kangasmannilantie",
    "amenity": "cafe",
    "cuisine": "coffee_shop",
    "name": "Megacafé",
    "opening_hours": "Mo-Fr 07:00-21:00; Sa 08:00-18:00; Su 12:00-18:00",
    "snowmobile": "yes"
  }
},
{
  "type": "node",
  "id": 441999286,
  "lat": 62.7039120,
  "lon": 25.2697822,
  "tags": {
    "amenity": "cafe",
    "name": "kahvila Peukalo"
  }
},
{
  "type": "node",
  "id": 442059962,
  "lat": 60.1831369,
  "lon": 24.8850016,
  "tags": {
    "amenity": "cafe",
    "diet:kosher": "no",
    "diet:vegan": "yes",
    "diet:vegetarian": "yes",
    "name": "Kaffe Liiteri",
    "wheelchair": "yes"
  }
},
{
  "type": "node",
  "id": 442665303,
  "lat": 59.4577927,
  "lon": 28.0293586,
  "tags": {
    "addr:city": "Narva Joesuu",
    "addr:country": "EE",
    "amenity": "cafe",
    "name": "Meretare"
  }
},
{
  "type": "node",
  "id": 443835928,
  "lat": 59.9392594,
  "lon": 23.6273579,
  "tags": {
    "addr:housenumber": "291",
    "addr:street": "Boxvägen",
    "amenity": "cafe"
  }
},
{
  "type": "node",
  "id": 444776758,
  "lat": 59.9304882,
  "lon": 30.3642134,
  "tags": {
    "amenity": "cafe",
    "contact:website": "https://alfabank.ru/office/peterburg/vosstaniya-square/",
    "disused:amenity": "bank",
    "name": "Wahaha"
  }
},
{
  "type": "node",
  "id": 445381428,
  "lat": 60.1818784,
  "lon": 24.9513550,
  "tags": {
    "addr:city": "Helsinki",
    "addr:country": "FI",
    "addr:housenumber": "5",
    "addr:postcode": "00530",
    "addr:street": "Porthaninkatu",
    "amenity": "cafe",
    "diet:halal": "no",
    "diet:kosher": "no",
    "name": "Harlekiini"
  }
},
{
  "type": "node",
  "id": 445388334,
  "lat": 59.8975734,
  "lon": 30.6889863,
  "tags": {
    "amenity": "cafe",
    "name": "Горка"
  }
},
{
  "type": "node",
  "id": 445996321,
  "lat": 63.6787389,
  "lon": 22.7179940,
  "tags": {
    "addr:city": "Jakobstad",
    "addr:housenumber": "1",
    "addr:postcode": "68600",
    "addr:street": "Skolgatan",
    "amenity": "cafe",
    "name": "Teboil Jakobstad",
    "opening_hours": "Mo-Fr 06:00-22:00;Sa-Su 08:00-22:00"
  }
},
{
  "type": "node",
  "id": 445996322,
  "lat": 63.6791283,
  "lon": 22.7314802,
  "tags": {
    "addr:city": "Jakobstad",
    "addr:postcode": "68600",
    "addr:street": "Permossvängen",
    "amenity": "cafe",
    "name": "Neste Permossvängen",
    "opening_hours": "Mo-Fr 06:30-21:00; Sa 08:00-21:00; Su 09:00-21:00",
    "phone": "(06) 724 8122",
    "website": "https://www.neste.fi/"
  }
},
{
  "type": "node",
  "id": 446038654,
  "lat": 60.0075518,
  "lon": 24.4555412,
  "tags": {
    "addr:housenumber": "1543",
    "addr:postcode": "02480",
    "addr:street": "Porkkalantie",
    "amenity": "cafe",
    "name": "Cafe Porkkala",
    "opening_hours": "Sa-Su 11:00-19:00",
    "phone": "+358500432416",
    "source": "local knowledge, bing",
    "website": "http://cafeporkkala.fi/"
  }
},
{
  "type": "node",
  "id": 446064734,
  "lat": 59.9180664,
  "lon": 30.3469291,
  "tags": {
    "amenity": "cafe"
  }
},
{
  "type": "node",
  "id": 446064736,
  "lat": 59.9183874,
  "lon": 30.3464032,
  "tags": {
    "amenity": "cafe",
    "name": "Flat White"
  }
},
{
  "type": "node",
  "id": 446760379,
  "lat": 60.1836377,
  "lon": 24.9519610,
  "tags": {
    "addr:city": "Helsinki",
    "addr:country": "FI",
    "addr:housenumber": "14",
    "addr:postcode": "00530",
    "addr:street": "Viides linja",
    "amenity": "cafe",
    "diet:halal": "no",
    "diet:kosher": "no",
    "lunch": "yes",
    "name": "flät no 14",
    "opening_hours": "Mo-Tu 09:00-17:00; We-Sa 09:00-23:00; Su 09:00-17:00",
    "phone": "+358449783067",
    "website": "https://www.flathelsinki.fi/"
  }
},
{
  "type": "node",
  "id": 446883699,
  "lat": 60.1640135,
  "lon": 24.9266209,
  "tags": {
    "amenity": "cafe",
    "diet:halal": "no",
    "diet:kosher": "no",
    "name": "Kulmakahvi 48",
    "note": "Kahvila + kioski",
    "shop": "kiosk"
  }
},
{
  "type": "node",
  "id": 448894677,
  "lat": 60.2026162,
  "lon": 25.1596722,
  "tags": {
    "a-oikeudet": "yes",
    "addr:city": "Helsinki",
    "addr:country": "FI",
    "amenity": "cafe",
    "cuisine": "coffee_shop",
    "name": "Cafe Biitsi",
    "note": "Only during the summer season.",
    "outdoor_seating": "yes",
    "wheelchair": "yes"
  }
},
{
  "type": "node",
  "id": 451730929,
  "lat": 69.4711427,
  "lon": 25.5112413,
  "tags": {
    "amenity": "cafe",
    "cuisine": "regional",
    "name": "Biebmo",
    "opening_hours": "Mo-Su 14:00-20:00",
    "phone": "+4778466151",
    "snowmobile": "yes"
  }
},
{
  "type": "node",
  "id": 454729256,
  "lat": 62.9597152,
  "lon": 23.0506252,
  "tags": {
    "addr:city": "Lapua",
    "addr:housenumber": "10",
    "addr:postcode": "62100",
    "addr:street": "Vasunmäentie",
    "amenity": "cafe",
    "name": "Shell Tamppari, Lapua",
    "opening_hours": "24/7",
    "phone": "(06) 437 4430",
    "website": "https://www.st1.fi/huoltoasemat?sub=lapua_tamppari"
  }
},
{
  "type": "node",
  "id": 455022952,
  "lat": 61.1766087,
  "lon": 25.5364138,
  "tags": {
    "amenity": "cafe",
    "communication:5G": "yes",
    "name": "Kanavan Helmi",
    "outdoor_seating": "yes"
  }
},
{
  "type": "node",
  "id": 455033469,
  "lat": 61.2011649,
  "lon": 26.0253882,
  "tags": {
    "addr:city": "Heinola",
    "addr:country": "FI",
    "addr:housenumber": "1",
    "addr:postcode": "18100",
    "addr:street": "Maaherrankatu",
    "amenity": "cafe",
    "name": "Tyyrpuuri",
    "outdoor_seating": "yes",
    "phone": "+358 3 7157920",
    "website": "https://www.facebook.com/tyyrpuuri/",
    "wheelchair": "yes"
  }
},
{
  "type": "node",
  "id": 455486258,
  "lat": 60.4494834,
  "lon": 22.2710640,
  "tags": {
    "addr:housenumber": "5",
    "addr:postcode": "20100",
    "addr:street": "Läntinen Rantakatu",
    "amenity": "cafe",
    "cuisine": "coffee_shop",
    "diet:halal": "no",
    "diet:kosher": "no",
    "internet_access": "wlan",
    "internet_access:fee": "no",
    "name": "Café Art",
    "opening_hours": "Mo-Fr 10:00-19:00; Sa 10:00-18:00; Su 11:00-17:00",
    "opening_hours:covid19": "open",
    "takeaway:covid19": "yes",
    "website": "https://www.cafeart.fi",
    "wheelchair": "no"
  }
},
{
  "type": "node",
  "id": 456832340,
  "lat": 61.7700540,
  "lon": 27.5883369,
  "tags": {
    "addr:city": "Nuutilanmäki",
    "addr:country": "FI",
    "addr:housenumber": "10",
    "addr:postcode": "51760",
    "addr:street": "Kauraleiväntie",
    "amenity": "cafe",
    "contact:email": "kievar@kauraleipa.fi",
    "contact:fax": "+358 15 418 681",
    "name": "Siiskonen Kotileipomo",
    "phone": "+358 15 4100 425",
    "source": "survey",
    "website": "http://www.kauraleipa.fi/"
  }
},
{
  "type": "node",
  "id": 457501045,
  "lat": 63.5932979,
  "lon": 26.8324777,
  "tags": {
    "amenity": "cafe",
    "name": "Neulatammen kahvio"
  }
},
{
  "type": "node",
  "id": 459391806,
  "lat": 63.6729197,
  "lon": 22.7036115,
  "tags": {
    "addr:city": "Jakobstad",
    "addr:housenumber": "6",
    "addr:postcode": "68600",
    "addr:street": "Storgatan",
    "amenity": "cafe",
    "cuisine": "regional;coffee_shop",
    "email": "cafe@aftereight.fi",
    "internet_access": "wlan",
    "internet_access:fee": "no",
    "name": "Musikcafé After Eight",
    "note": "The association Musikcafé After Eight r.f. is a youth association that has existed and operated youth activities for more than 30 years. Right from the start, the basic idea has been to create an alternative meeting place for young people and at the same",
    "phone": "+358 44 7816 512",
    "website": "http://aftereight.fi/"
  }
},
{
  "type": "node",
  "id": 459488020,
  "lat": 60.2161042,
  "lon": 24.7105222,
  "tags": {
    "amenity": "cafe",
    "comment": "Old knowledge, assuming the cafe still exists",
    "fixme": "Verify that the cafe still exists, name the cafe",
    "source": "knowledge"
  }
},
{
  "type": "node",
  "id": 460374494,
  "lat": 64.3489714,
  "lon": 20.5039698,
  "tags": {
    "amenity": "cafe",
    "contact:phone": "+46 914 20010",
    "name": "Westmans",
    "opening_hours": "Mo-Fr 11:00-20:00; Sa-Su 12:00-20:00",
    "ref": "http://www.westmanscafe.se"
  }
},
{
  "type": "node",
  "id": 460478936,
  "lat": 60.3179147,
  "lon": 30.4406073,
  "tags": {
    "amenity": "cafe"
  }
},
{
  "type": "node",
  "id": 460576687,
  "lat": 62.2735485,
  "lon": 21.3801569,
  "tags": {
    "addr:city": "Kristiinankaupunki",
    "addr:country": "FI",
    "addr:housenumber": "8",
    "addr:postcode": "64100",
    "addr:street": "Merikatu",
    "amenity": "cafe",
    "is_in": "Kristinestad, Finland",
    "name": "Jungman"
  }
},
{
  "type": "node",
  "id": 461189596,
  "lat": 59.9295450,
  "lon": 20.9697182,
  "tags": {
    "amenity": "cafe",
    "cuisine": "regional;pizza",
    "internet_access": "wlan",
    "name": "Peders Aplagård",
    "opening_hours": "10-18 every day",
    "phone": "+358407362498",
    "smoking": "outside",
    "website": "http://www.aplagarden.ax",
    "wheelchair": "yes"
  }
},
{
  "type": "node",
  "id": 461636218,
  "lat": 60.2122435,
  "lon": 25.0697420,
  "tags": {
    "amenity": "cafe",
    "diet:halal": "no",
    "diet:kosher": "no",
    "name": "Jäähallin kahvila"
  }
},
{
  "type": "node",
  "id": 461829030,
  "lat": 61.6650487,
  "lon": 27.2998139,
  "tags": {
    "amenity": "cafe",
    "name": "Kirkonvarkaus (summer)"
  }
},
{
  "type": "node",
  "id": 462752390,
  "lat": 60.2026943,
  "lon": 24.9683994,
  "tags": {
    "addr:city": "Helsinki",
    "addr:country": "FI",
    "addr:housename": "Arabia",
    "addr:housenumber": "109-111",
    "addr:postcode": "00560",
    "addr:street": "Hämeentie",
    "amenity": "cafe",
    "cuisine": "coffee_shop",
    "diet:halal": "no",
    "diet:kosher": "no",
    "email": "robertscoffeearabia@gmail.com",
    "level": "2",
    "lunch": "Mo-Fr 11:00-20:00",
    "name": "Robert's Coffee",
    "opening_hours": "Mo-Fr 08:00-20:00; Sa 10:00-18:00",
    "payment:cash": "yes",
    "payment:debit_cards": "yes",
    "payment:mastercard": "yes",
    "payment:visa": "yes",
    "phone": "+358 40 539 6004",
    "source": "local knowledge",
    "website": "https://www.robertscoffee.com/cafe/arabian-kauppakeskus/",
    "wheelchair": "yes"
  }
},
{
  "type": "node",
  "id": 464485513,
  "lat": 60.2836546,
  "lon": 24.9837840,
  "tags": {
    "amenity": "cafe",
    "name": "Kahvitupa Laurentius",
    "name:sv": "Caffestuga Leurentius",
    "source": "photograph"
  }
},
{
  "type": "node",
  "id": 464729845,
  "lat": 60.1861961,
  "lon": 24.9254015,
  "tags": {
    "amenity": "cafe",
    "diet:halal": "no",
    "diet:kosher": "no",
    "name": "Pallokentän kahvio"
  }
},
{
  "type": "node",
  "id": 464787382,
  "lat": 60.5413627,
  "lon": 29.4895617,
  "tags": {
    "amenity": "cafe",
    "name": "Столовая",
    "quality": "drinkable"
  }
},
{
  "type": "node",
  "id": 465728029,
  "lat": 60.4695521,
  "lon": 22.0169263,
  "tags": {
    "addr:city": "Naantali",
    "addr:country": "FI",
    "amenity": "cafe",
    "source": "survey"
  }
},
{
  "type": "node",
  "id": 465732245,
  "lat": 60.4703221,
  "lon": 22.0153641,
  "tags": {
    "addr:city": "Naantali",
    "addr:country": "FI",
    "addr:housenumber": "5",
    "addr:postcode": "21100",
    "addr:street": "Nunnakatu",
    "amenity": "cafe",
    "name": "Cafe Amandis",
    "url": "http://www.hotelamandis.com/kahvila.php"
  }
},
{
  "type": "node",
  "id": 465734006,
  "lat": 60.4705430,
  "lon": 22.0143060,
  "tags": {
    "amenity": "cafe",
    "name": "Cafe Santala"
  }
},
{
  "type": "node",
  "id": 466976159,
  "lat": 60.4740720,
  "lon": 22.0043016,
  "tags": {
    "addr:city": "Naantali",
    "addr:country": "FI",
    "amenity": "cafe",
    "is_in": "Muumimaailma, Naantali, Finland"
  }
},
{
  "type": "node",
  "id": 466978923,
  "lat": 60.4727658,
  "lon": 22.0049229,
  "tags": {
    "addr:city": "Naantali",
    "addr:country": "FI",
    "amenity": "cafe",
    "is_in": "Muumimaailma, Naantali, Finland",
    "name": "Picnic"
  }
},
{
  "type": "node",
  "id": 467002736,
  "lat": 60.4672123,
  "lon": 22.0242243,
  "tags": {
    "addr:city": "Naantali",
    "addr:country": "FI",
    "amenity": "cafe",
    "name": "Naantalin aurinkoinen"
  }
},
{
  "type": "node",
  "id": 467126271,
  "lat": 60.3857271,
  "lon": 24.7445322,
  "tags": {
    "addr:city": "Klaukkala",
    "addr:country": "FI",
    "addr:housenumber": "69",
    "addr:postcode": "01800",
    "addr:street": "Klaukkalantie",
    "amenity": "cafe",
    "name": "Cafe Hugo",
    "phone": "09 - 276 6710",
    "url": "www.cafehugo.fi"
  }
},
{
  "type": "node",
  "id": 469107445,
  "lat": 60.2316266,
  "lon": 24.6061521,
  "tags": {
    "amenity": "cafe",
    "source": "photograph"
  }
},
{
  "type": "node",
  "id": 469179549,
  "lat": 60.3786033,
  "lon": 24.7559719,
  "tags": {
    "addr:city": "Klaukkala",
    "addr:country": "FI",
    "addr:housenumber": "59",
    "addr:postcode": "01800",
    "addr:street": "Klaukkalantie",
    "amenity": "cafe",
    "name": "Koto",
    "source": "photograph",
    "website": "www.kotokahvila.fi"
  }
},
{
  "type": "node",
  "id": 469179646,
  "lat": 60.3776125,
  "lon": 24.7588241,
  "tags": {
    "amenity": "cafe",
    "comment": "under construction 08 / 1009",
    "name": "Cafe Viiri",
    "opening_hours": "Mo-Fr 10:00-19:00; Sa 10:00-16:00; Su off",
    "outdoor_seating": "yes",
    "source": "photograph"
  }
},
{
  "type": "node",
  "id": 469832491,
  "lat": 61.4220200,
  "lon": 26.6692667,
  "tags": {
    "addr:city": "Mäntyharju",
    "addr:country": "FI",
    "addr:housenumber": "924",
    "addr:street": "Miekankoskentie",
    "amenity": "cafe",
    "email": "juhla-eraruokapalvelu@luukku.com",
    "name": "Uittotupa (Miekankoski)",
    "opening_hours": "\"Summer season\"",
    "outdoor_seating": "yes",
    "phone": "+358 400 653 281",
    "url": "http://www.miekankoskenkahvila.com/",
    "website": "http://www.miekankoskenkahvila.com/"
  }
},
{
  "type": "node",
  "id": 470193043,
  "lat": 68.3951911,
  "lon": 23.6676077,
  "tags": {
    "addr:city": "Enontekiö",
    "addr:housenumber": "15",
    "addr:postcode": "99400",
    "addr:street": "Peuratie",
    "amenity": "cafe",
    "cuisine": "regional",
    "internet_access": "wlan",
    "internet_access:fee": "no",
    "outdoor_seating": "no",
    "smoking": "outside",
    "snowmobile": "yes",
    "wheelchair": "yes"
  }
},
{
  "type": "node",
  "id": 470938642,
  "lat": 67.1290528,
  "lon": 20.6778884,
  "tags": {
    "amenity": "cafe",
    "name": "Strandcafe"
  }
},
{
  "type": "node",
  "id": 470938689,
  "lat": 67.1329818,
  "lon": 20.6657721,
  "tags": {
    "amenity": "cafe",
    "name": "Nyfiket",
    "shop": "bakery"
  }
},
{
  "type": "node",
  "id": 470949135,
  "lat": 66.1798660,
  "lon": 19.9469480,
  "tags": {
    "addr:city": "Kåbdalis",
    "addr:country": "SE",
    "addr:housename": "Kitajaur Järnvägsstation",
    "addr:postcode": "962 05",
    "amenity": "cafe",
    "email": "kitajaur@gmail.com",
    "fax": "+46 928 23351",
    "name": "Kitajaur VildmarksCafé",
    "phone": "+46 928 23350",
    "website": "http://www.kitajaur.se"
  }
},
{
  "type": "node",
  "id": 471363136,
  "lat": 60.4577061,
  "lon": 22.2715446,
  "tags": {
    "amenity": "cafe",
    "cuisine": "coffee_shop",
    "diet:halal": "no",
    "diet:kosher": "no",
    "name": "Xoco's",
    "website": "http://www.moberg.fi/"
  }
},
{
  "type": "node",
  "id": 471788613,
  "lat": 61.2586987,
  "lon": 24.3525859,
  "tags": {
    "amenity": "cafe",
    "name": "Kyläkaupan kahvio"
  }
},
{
  "type": "node",
  "id": 471788921,
  "lat": 61.2588071,
  "lon": 24.3540236,
  "tags": {
    "amenity": "cafe",
    "name": "Suttisen kahvio"
  }
},
{
  "type": "node",
  "id": 471829182,
  "lat": 60.9828568,
  "lon": 25.6570638,
  "tags": {
    "addr:city": "Lahti",
    "addr:country": "FI",
    "amenity": "cafe",
    "name": "Robert's Coffee",
    "opening_hours": "Mo-Fr 08:30-19:00; Sa 10:00-17:00"
  }
},
{
  "type": "node",
  "id": 471983332,
  "lat": 60.6286205,
  "lon": 24.8571481,
  "tags": {
    "amenity": "cafe",
    "name": "Linjalan kahvio",
    "name:en": "Linjala Café",
    "name:fi": "Linjalan kahvio",
    "source": "photograph"
  }
},
{
  "type": "node",
  "id": 471987951,
  "lat": 60.6313898,
  "lon": 24.8573379,
  "tags": {
    "amenity": "cafe",
    "name": "Janessa",
    "source": "photograph",
    "wheelchair": "limited"
  }
},
{
  "type": "node",
  "id": 472358850,
  "lat": 60.2385244,
  "lon": 22.8757762,
  "tags": {
    "addr:city": "Kemiönsaari",
    "addr:housenumber": "1255",
    "addr:postcode": "25760",
    "addr:street": "Suomenkulmantie",
    "amenity": "cafe",
    "name": "Westersin Puutarha",
    "name:en": "Westers Garden",
    "name:fi": "Westersin Puutarha",
    "name:sv": "Westers Trädgård",
    "url": "http://www.westers.fi/"
  }
},
{
  "type": "node",
  "id": 473048147,
  "lat": 60.4686615,
  "lon": 22.0163600,
  "tags": {
    "addr:city": "Naantali",
    "addr:country": "FI",
    "amenity": "cafe",
    "name": "Cafe Antonius"
  }
},
{
  "type": "node",
  "id": 474721991,
  "lat": 61.4897648,
  "lon": 21.7842353,
  "tags": {
    "addr:city": "Pori",
    "addr:housenumber": "1",
    "addr:postcode": "28100",
    "addr:street": "Karjarannantie",
    "amenity": "cafe"
  }
},
{
  "type": "node",
  "id": 477199628,
  "lat": 60.1465840,
  "lon": 24.6598014,
  "tags": {
    "amenity": "cafe",
    "diet:halal": "no",
    "diet:kosher": "no",
    "name": "Cafe Lahti",
    "opening_hours:covid19": "off",
    "outdoor_seating": "no",
    "website": "https://windyday.fi/lahti/"
  }
},
{
  "type": "node",
  "id": 477270631,
  "lat": 60.2131593,
  "lon": 24.9571361,
  "tags": {
    "addr:city": "Helsinki",
    "addr:housenumber": "56",
    "addr:postcode": "00610",
    "addr:street": "Koskelantie",
    "amenity": "cafe",
    "cuisine": "coffee_shop",
    "diet:halal": "no",
    "diet:kosher": "no",
    "name": "Café Sose",
    "opening_hours": "Mo-Fr 09:00-15:30, Sa,Su 09:00-15:00",
    "website": "https://facebook.com/"
  }
},
{
  "type": "node",
  "id": 477877422,
  "lat": 61.8121500,
  "lon": 21.6588426,
  "tags": {
    "air_conditioning": "no",
    "amenity": "cafe",
    "name": "Lankosken Kahvimylly",
    "outdoor_seating": "yes",
    "seasonal": "summer",
    "website": "http://www.lankoski.com/kahvimylly"
  }
},
{
  "type": "node",
  "id": 479830756,
  "lat": 60.4459913,
  "lon": 22.2501170,
  "tags": {
    "addr:postcode": "20100",
    "amenity": "cafe",
    "diet:halal": "no",
    "diet:kosher": "no",
    "name": "Oksi",
    "opening_hours": "Tu-Fr 10:00-17:00; Sa 10:00-16:00",
    "phone": "+358452094749",
    "website": "https://www.kahvilaoksi.fi"
  }
},
{
  "type": "node",
  "id": 480116617,
  "lat": 60.2581738,
  "lon": 29.6003252,
  "tags": {
    "amenity": "cafe"
  }
},
{
  "type": "node",
  "id": 485662842,
  "lat": 63.0975548,
  "lon": 21.6217525,
  "tags": {
    "addr:city": "Vaasa",
    "addr:housenumber": "13",
    "addr:postcode": "65100",
    "addr:street": "Ratakatu",
    "amenity": "cafe",
    "name": "Cafe Solo"
  }
},
{
  "type": "node",
  "id": 486167328,
  "lat": 63.0946391,
  "lon": 21.6173633,
  "tags": {
    "amenity": "cafe",
    "level": "0",
    "name": "Lilla Entrén",
    "shop": "bakery",
    "source": "survey"
  }
},
{
  "type": "node",
  "id": 486235888,
  "lat": 63.1120498,
  "lon": 21.6575063,
  "tags": {
    "addr:city": "Vaasa",
    "addr:housenumber": "14",
    "addr:postcode": "65300",
    "addr:street": "Kivihaantie",
    "amenity": "cafe",
    "is_in": "Vaasa, Finland",
    "name": "Aschan Coffee & Deli",
    "wheelchair": "yes"
  }
},
{
  "type": "node",
  "id": 486709733,
  "lat": 59.8487909,
  "lon": 30.3220903,
  "tags": {
    "amenity": "cafe",
    "brand": "Coffeeshop Company",
    "contact:instagram": "coffeeshop_co",
    "contact:vk": "csc",
    "entrance": "yes",
    "opening_hours": "08:00-23:00",
    "operator": "НордСтар",
    "payment:cash": "yes",
    "payment:maestro": "yes",
    "payment:mastercard": "yes",
    "payment:visa": "yes",
    "payment:visa_electron": "yes",
    "shop": "confectionery",
    "website": "https://coffeeshopcompany.ru/",
    "wheelchair": "limited"
  }
},
{
  "type": "node",
  "id": 487245985,
  "lat": 59.9727700,
  "lon": 30.3402070,
  "tags": {
    "amenity": "cafe",
    "lunch_hours": "Mo-Fr 13:00-16:00",
    "name": "Пирога",
    "opening_hours": "Mo-Su 10:00-22:00",
    "operator": "ООО «Доминго»"
  }
},
{
  "type": "node",
  "id": 496024244,
  "lat": 65.6703927,
  "lon": 22.0839355,
  "tags": {
    "amenity": "cafe"
  }
},
{
  "type": "node",
  "id": 497260701,
  "lat": 66.5882557,
  "lon": 19.8583027,
  "tags": {
    "amenity": "cafe",
    "building": "yes",
    "name": "Storknabben"
  }
},
{
  "type": "node",
  "id": 510118793,
  "lat": 67.7910369,
  "lon": 24.7839722,
  "tags": {
    "amenity": "cafe",
    "name": "Riihi",
    "snowmobile": "yes"
  }
},
{
  "type": "node",
  "id": 515643555,
  "lat": 60.2388762,
  "lon": 24.8493301,
  "tags": {
    "addr:city": "Helsinki",
    "addr:housenumber": "1",
    "addr:postcode": "00390",
    "addr:street": "Ajomiehentie",
    "amenity": "cafe",
    "cuisine": "coffee_shop",
    "diet:halal": "no",
    "diet:kosher": "no",
    "level": "0",
    "name": "Marian konditoria",
    "opening_hours": "Mo-Fr 08:00-18:00; Sa 10:00-15:00; Su closed"
  }
},
{
  "type": "node",
  "id": 515868603,
  "lat": 61.4854001,
  "lon": 21.7978217,
  "tags": {
    "amenity": "cafe",
    "brand": "Marimekko",
    "brand:wikidata": "Q534903",
    "brand:wikipedia": "fi:Marimekko",
    "name": "Caffé Locale",
    "opening_hours": "Tu-Fr 09:00-16:00, Fr 10:00-15:00"
  }
},
{
  "type": "node",
  "id": 522099805,
  "lat": 62.2881133,
  "lon": 25.7173691,
  "tags": {
    "addr:city": "Jyväskylä",
    "addr:housenumber": "1",
    "addr:postcode": "40270",
    "addr:street": "Palokanorsi",
    "amenity": "cafe",
    "email": "cafe@piazzacafe.fi",
    "name": "Piazza Cafe",
    "opening_hours": "Mo-Fr 09:00-18:00, Sa 09:00-16:00",
    "outdoor_seating": "no",
    "phone": "+358504708858",
    "website": "http://piazzacafe.fi/"
  }
},
{
  "type": "node",
  "id": 522809382,
  "lat": 60.2591157,
  "lon": 25.2372744,
  "tags": {
    "addr:housenumber": "6",
    "addr:street": "Storörintie",
    "amenity": "cafe",
    "name": "Café Storören"
  }
},
{
  "type": "node",
  "id": 525359854,
  "lat": 59.9326592,
  "lon": 30.3042209,
  "tags": {
    "amenity": "cafe",
    "name": "Столовая на Почтамтской",
    "opening_hours": "09:00-21:00"
  }
},
{
  "type": "node",
  "id": 525360782,
  "lat": 59.9322913,
  "lon": 30.3029943,
  "tags": {
    "amenity": "cafe",
    "level": "-0.5",
    "name": "Папарацци",
    "opening_hours": "11:00-23:00",
    "operator": "ЗАО \"Лига\""
  }
},
{
  "type": "node",
  "id": 527747111,
  "lat": 59.9863292,
  "lon": 30.3593804,
  "tags": {
    "amenity": "cafe"
  }
},
{
  "type": "node",
  "id": 529104450,
  "lat": 60.4384900,
  "lon": 22.2408987,
  "tags": {
    "amenity": "cafe",
    "diet:halal": "no",
    "diet:kosher": "no",
    "name": "Manuela"
  }
},
{
  "type": "node",
  "id": 529409691,
  "lat": 59.9054142,
  "lon": 30.4201406,
  "tags": {
    "amenity": "cafe"
  }
},
{
  "type": "node",
  "id": 529927323,
  "lat": 60.9630802,
  "lon": 28.5367827,
  "tags": {
    "addr:city": "Nuijamaa",
    "addr:country": "FI",
    "addr:housenumber": "3",
    "addr:postcode": "54230",
    "addr:street": "Pihkalanjärventie",
    "amenity": "cafe",
    "cuisine": "fish",
    "name": "Disa's fish",
    "opening_hours:covid19": "closed"
  }
},
{
  "type": "node",
  "id": 533711728,
  "lat": 61.5010818,
  "lon": 23.7673319,
  "tags": {
    "addr:city": "Tampere",
    "addr:country": "FI",
    "addr:housenumber": "3",
    "addr:postcode": "33100",
    "addr:street": "Ojakatu",
    "amenity": "cafe",
    "diet:halal": "no",
    "diet:kosher": "no",
    "name": "Kahvila Runo",
    "opening_hours": "Mo-Sa 09:00-20:00; Su 10:00-20:00",
    "toilets:wheelchair": "no",
    "url": "http://kahvilaruno.fi/",
    "wheelchair": "no"
  }
},
{
  "type": "node",
  "id": 535085527,
  "lat": 60.1604131,
  "lon": 24.9404385,
  "tags": {
    "addr:city": "Helsinki",
    "addr:country": "FI",
    "addr:housenumber": "7",
    "addr:postcode": "00150",
    "addr:street": "Pursimiehenkatu",
    "amenity": "cafe",
    "breakfast": "yes",
    "diet:halal": "no",
    "diet:kosher": "no",
    "internet_access": "wlan",
    "name": "SIS Deli + Café",
    "opening_hours": "Mo-Fr 07:00-18:00; Sa-Su 09:00-16:00",
    "website": "https://sisdeli.fi/"
  }
},
{
  "type": "node",
  "id": 538080470,
  "lat": 60.0081427,
  "lon": 30.2471482,
  "tags": {
    "amenity": "cafe"
  }
},
{
  "type": "node",
  "id": 540060972,
  "lat": 60.5364715,
  "lon": 24.1906621,
  "tags": {
    "amenity": "cafe",
    "cuisine": "burger",
    "name": "Pyhäjärven helmi"
  }
},
{
  "type": "node",
  "id": 540726894,
  "lat": 60.0053331,
  "lon": 30.2613188,
  "tags": {
    "amenity": "cafe"
  }
},
{
  "type": "node",
  "id": 541406230,
  "lat": 59.9567579,
  "lon": 30.3118369,
  "tags": {
    "amenity": "cafe",
    "brand:wikidata": "Q4411982",
    "contact:facebook": "https://www.facebook.com/sever.metropol.official",
    "contact:instagram": "https://www.instagram.com/sever_metropol/",
    "contact:vk": "https://vk.com/sever.metropol.official",
    "contact:website": "https://sever-metropol.ru/",
    "cuisine": "cake;coffee_shop",
    "email": "info@sf-sm.ru",
    "internet_access": "wlan",
    "name": "Север-Метрополь",
    "name:en": "Sever-Metropol",
    "name:ru": "Север-Метрополь",
    "opening_hours": "09:00-21:00",
    "outdoor_seating": "no",
    "payment:cash": "yes",
    "payment:mastercard": "yes",
    "payment:visa": "yes",
    "phone": "+7 812 4144612",
    "shop": "pastry",
    "website": "https://sever-metropol.ru/",
    "wheelchair": "no"
  }
},
{
  "type": "node",
  "id": 549715923,
  "lat": 62.3301610,
  "lon": 29.8535378,
  "tags": {
    "addr:street": "Hammaslahdentie 1044",
    "amenity": "cafe",
    "name": "Kompakan kauppa",
    "opening_hours": "Mo-Fr 08:30-17:00; Sa 8:30-13:00",
    "phone": "013 - 66 41 77",
    "wheelchair": "no"
  }
},
{
  "type": "node",
  "id": 551306071,
  "lat": 62.7044476,
  "lon": 25.2599930,
  "tags": {
    "amenity": "cafe",
    "is_in": "Saarijärvi, Finland",
    "last_verified": "2014-05-11",
    "name": "Nettikahvila",
    "operator": "Saarijärven työttömät ry."
  }
},
{
  "type": "node",
  "id": 551336927,
  "lat": 61.1154097,
  "lon": 22.1615119,
  "tags": {
    "amenity": "cafe",
    "name": "Kauttuan Kipsa",
    "shop": "kiosk"
  }
},
{
  "type": "node",
  "id": 558932360,
  "lat": 61.6417522,
  "lon": 26.7741061,
  "tags": {
    "addr:city": "Hirvensalmi",
    "addr:country": "FI",
    "addr:housenumber": "25",
    "addr:postcode": "52550",
    "addr:street": "Hirvensalmentie",
    "amenity": "cafe",
    "name": "Kukka-kahvila",
    "opening_hours": "Mo-Fr 08:30-16:00; Sa,Su off",
    "website": "http://www.kukka-kahvila.fi/"
  }
},
{
  "type": "node",
  "id": 561157757,
  "lat": 60.4547428,
  "lon": 22.2790846,
  "tags": {
    "amenity": "cafe"
  }
},
{
  "type": "node",
  "id": 561243464,
  "lat": 65.8452452,
  "lon": 24.1477758,
  "tags": {
    "addr:housenumber": "10",
    "addr:street": "Hallituskatu",
    "amenity": "cafe",
    "cuisine": "pizza;waffle",
    "name": "Hevi's deli & café",
    "opening_hours": "Mo-Th 11:00-19:00; Fr-Sa 11:00-20:00",
    "phone": "+358-45-266-3559",
    "website": "http://www.hevisdelicafe.fi/"
  }
},
{
  "type": "node",
  "id": 566713983,
  "lat": 59.8490882,
  "lon": 30.3233746,
  "tags": {
    "amenity": "cafe",
    "name": "Вояж",
    "opening_hours": "24/7"
  }
},
{
  "type": "node",
  "id": 569674575,
  "lat": 59.9575794,
  "lon": 30.3281716,
  "tags": {
    "amenity": "cafe",
    "cuisine": "pie",
    "name": "Рыжий кот",
    "opening_hours": "Mo-Fr 09:00-21:00; Sa-Su 10:00-21:00"
  }
},
{
  "type": "node",
  "id": 571202792,
  "lat": 59.8468153,
  "lon": 30.3308092,
  "tags": {
    "amenity": "cafe"
  }
},
{
  "type": "node",
  "id": 574338355,
  "lat": 61.1160975,
  "lon": 22.1619589,
  "tags": {
    "amenity": "cafe",
    "name": "Euran Pallon kioski",
    "shop": "kiosk"
  }
},
{
  "type": "node",
  "id": 577204009,
  "lat": 61.6442059,
  "lon": 27.0775991,
  "tags": {
    "addr:city": "Otava",
    "addr:housenumber": "2",
    "addr:postcode": "50670",
    "addr:street": "Mäntytie",
    "amenity": "cafe",
    "is_in": "Otava, Mikkeli, Finland",
    "name": "Haapasen Kotileipomo",
    "opening_hours": "Mo-Fr 07:00-17:00; Sa 09:00-15:00",
    "phone": "+358 15 230 459",
    "website": "https://www.haapasen.fi/"
  }
},
{
  "type": "node",
  "id": 577830123,
  "lat": 61.5047734,
  "lon": 26.4803831,
  "tags": {
    "addr:city": "Pertunmaa",
    "addr:country": "FI",
    "amenity": "cafe",
    "cuisine": "coffee_shop",
    "name": "Kesäkahvila Torin ranta",
    "outdoor_seating": "yes"
  }
},
{
  "type": "node",
  "id": 579868588,
  "lat": 59.8840840,
  "lon": 30.4841741,
  "tags": {
    "amenity": "cafe",
    "name": "Лев",
    "opening_hours": "Mo-Su 12:00-24:00",
    "operator": "Ирина, ЗАО"
  }
},
{
  "type": "node",
  "id": 580804661,
  "lat": 61.9905730,
  "lon": 26.6405851,
  "tags": {
    "amenity": "cafe"
  }
},
{
  "type": "node",
  "id": 580813220,
  "lat": 62.0026614,
  "lon": 26.6619702,
  "tags": {
    "amenity": "cafe",
    "name": "Reissupannu",
    "snowmobile": "yes",
    "website": "www.facebook.com/Kahvila-Reissupannu-613807872052168/"
  }
},
{
  "type": "node",
  "id": 581008999,
  "lat": 59.4639883,
  "lon": 28.0430542,
  "tags": {
    "amenity": "cafe",
    "name": "Yes kafe",
    "opening_hours": "Summer (closed winter)"
  }
},
{
  "type": "node",
  "id": 582993477,
  "lat": 67.1892439,
  "lon": 23.4952786,
  "tags": {
    "amenity": "cafe"
  }
},
{
  "type": "node",
  "id": 590585938,
  "lat": 61.6877627,
  "lon": 27.2775862,
  "tags": {
    "addr:city": "Mikkeli",
    "addr:country": "FI",
    "addr:postcode": "50100",
    "addr:street": "Mannerheimintie",
    "amenity": "cafe",
    "name": "Rautatieasema, Mikkeli",
    "name:fi": "Rautatieasema, Mikkeli",
    "name:sv": "Järnvägsstation, St. Michels"
  }
},
{
  "type": "node",
  "id": 590797229,
  "lat": 61.6870438,
  "lon": 27.2769115,
  "tags": {
    "addr:city": "Mikkeli",
    "addr:country": "FI",
    "addr:postcode": "50100",
    "addr:street": "Mannerheimintie",
    "amenity": "cafe",
    "name": "Mikkelin matkakeskus",
    "name:fi": "Mikkelin matkakeskus",
    "name:sv": "St. Michels resecentrum"
  }
},
{
  "type": "node",
  "id": 592561408,
  "lat": 61.6866831,
  "lon": 27.2729846,
  "tags": {
    "addr:city": "Mikkeli",
    "addr:country": "FI",
    "addr:postcode": "50100",
    "amenity": "cafe",
    "name": "Kirja cafe",
    "note": "Inside library 2nd floor"
  }
},
{
  "type": "node",
  "id": 593863785,
  "lat": 61.2710022,
  "lon": 27.1518748,
  "tags": {
    "addr:city": "Mäntyharju",
    "addr:postcode": "52700",
    "addr:street": "Kouvolantie",
    "amenity": "cafe",
    "name": "Tommolan salmi",
    "seasonal:winter": "no"
  }
},
{
  "type": "node",
  "id": 598447355,
  "lat": 65.8442294,
  "lon": 24.1441310,
  "tags": {
    "addr:housenumber": "9",
    "addr:street": "Länsiranta",
    "amenity": "cafe",
    "name": "Karkiainen",
    "phone": "+358-16-480-669"
  }
},
{
  "type": "node",
  "id": 598447357,
  "lat": 65.8440608,
  "lon": 24.1885494,
  "tags": {
    "amenity": "cafe",
    "name": "Karkiainen"
  }
},
{
  "type": "node",
  "id": 598598635,
  "lat": 62.1605774,
  "lon": 30.6802564,
  "tags": {
    "amenity": "cafe",
    "name": "Колмас Карелия",
    "opening_hours": "24/7"
  }
},
{
  "type": "node",
  "id": 598660703,
  "lat": 61.7038511,
  "lon": 27.3545462,
  "tags": {
    "alt_name": "Cafe Visulahti",
    "amenity": "cafe",
    "name": "Shell Express Mikkeli Visulahti",
    "snowmobile": "yes",
    "website": "http://www.cafevisulahti.fi/"
  }
},
{
  "type": "node",
  "id": 599175498,
  "lat": 61.0634950,
  "lon": 24.3879534,
  "tags": {
    "amenity": "cafe",
    "name": "Mierolan Silta"
  }
},
{
  "type": "node",
  "id": 599207044,
  "lat": 65.8444420,
  "lon": 24.1434025,
  "tags": {
    "addr:street": "Länsiranta",
    "amenity": "cafe",
    "name": "Viihde-kahvila Lappelill"
  }
},
{
  "type": "node",
  "id": 599344228,
  "lat": 61.8974813,
  "lon": 27.8563484,
  "tags": {
    "addr:city": "Juva",
    "addr:country": "FI",
    "addr:postcode": "51900",
    "amenity": "cafe",
    "name": "Juva"
  }
},
{
  "type": "node",
  "id": 599729426,
  "lat": 59.5746487,
  "lon": 30.0742313,
  "tags": {
    "amenity": "cafe",
    "name": "Пирожковая"
  }
},
{
  "type": "node",
  "id": 600082953,
  "lat": 60.1708694,
  "lon": 24.9576610,
  "tags": {
    "addr:city": "Helsinki",
    "addr:country": "FI",
    "addr:postcode": "00170",
    "addr:street": "Kirkkokatu",
    "amenity": "cafe",
    "contact:phone": "041 431 5441",
    "diet:halal": "no",
    "diet:kosher": "no",
    "name": "Tiedekahvila",
    "opening_hours": "Mo-Th 08:30-18:00; Fr 08:30-15:00",
    "url": "http://www.tiedekahvila.fi/"
  }
},
{
  "type": "node",
  "id": 600082966,
  "lat": 60.1743261,
  "lon": 24.9580160,
  "tags": {
    "addr:city": "Helsinki",
    "addr:country": "FI",
    "addr:housenumber": "9",
    "addr:postcode": "00170",
    "addr:street": "Liisankatu",
    "amenity": "cafe",
    "diet:halal": "no",
    "diet:kosher": "no",
    "name": "Chjoko",
    "opening_hours": "Mo-Fr 12:00-18:00; Sa 12:00-16:00",
    "phone": "+358 400 199 868",
    "shop": "confectionery",
    "url": "http://www.chjoko.com/",
    "website": "http://www.chjoko.com"
  }
},
{
  "type": "node",
  "id": 600082972,
  "lat": 60.1734420,
  "lon": 24.9584438,
  "tags": {
    "addr:housenumber": "1",
    "addr:street": "Maneesikatu",
    "amenity": "cafe",
    "diet:halal": "no",
    "diet:kosher": "no",
    "level": "1",
    "name": "Encanto cafe",
    "opening_hours": "Mo-Fri 09:00-16:00 Sat 10:00-15:00"
  }
},
{
  "type": "node",
  "id": 600091160,
  "lat": 60.1741439,
  "lon": 24.9516823,
  "tags": {
    "addr:city": "Helsinki",
    "addr:country": "FI",
    "addr:postcode": "00170",
    "addr:street": "Liisankatu",
    "amenity": "cafe",
    "diet:halal": "no",
    "diet:kosher": "no",
    "name": "Espresso edge"
  }
},
{
  "type": "node",
  "id": 600290643,
  "lat": 61.6888517,
  "lon": 27.2717654,
  "tags": {
    "addr:city": "Mikkeli",
    "addr:country": "FI",
    "addr:housenumber": "7",
    "addr:postcode": "50100",
    "addr:street": "Hallituskatu",
    "amenity": "cafe",
    "facebook": "https://www.facebook.com/raminkonditoria/",
    "floor": "1",
    "instagram": "https://www.instagram.com/raminkonditoria/",
    "is_in": "Akseli, Mikkeli",
    "name": "Ramin konditoria",
    "opening_hours": "Mo-Fr 09:00-18:00; Sa 09:00-17:00",
    "phone": "+358 44 704 3562",
    "website": "https://www.raminkonditoria.fi/"
  }
},
{
  "type": "node",
  "id": 600290650,
  "lat": 61.6891321,
  "lon": 27.2708536,
  "tags": {
    "addr:city": "Mikkeli",
    "addr:country": "FI",
    "addr:housenumber": "7-9",
    "addr:postcode": "50100",
    "addr:street": "Hallituskatu",
    "amenity": "cafe",
    "floor": "1",
    "is_in": "Akseli, Mikkeli",
    "name": "Sitruunapisara"
  }
},
{
  "type": "node",
  "id": 600392934,
  "lat": 67.6071521,
  "lon": 24.1430509,
  "tags": {
    "addr:city": "Äkäslompolo",
    "addr:country": "FI",
    "addr:housenumber": "4",
    "addr:postcode": "95970",
    "addr:street": "Riihentie",
    "amenity": "cafe",
    "name": "Lyhtykahvila",
    "smoking": "outside",
    "website": "http://yllaksenykkoscaravan.fi/kahvila/"
  }
},
{
  "type": "node",
  "id": 600394446,
  "lat": 60.1659889,
  "lon": 24.9475818,
  "tags": {
    "addr:city": "Helsinki",
    "addr:country": "FI",
    "addr:housenumber": "42",
    "addr:postcode": "00130",
    "addr:street": "Kasarmikatu",
    "amenity": "cafe",
    "diet:halal": "no",
    "diet:kosher": "no",
    "internet_access": "yes",
    "name": "Picnic",
    "opening_hours": "Mo-Fr 7:00-18:00; Sa 9:30-16:00; PH off",
    "opening_hours:covid19": "restricted",
    "smoking": "no",
    "takeaway:covid19": "only",
    "website": "https://www.picnic.fi/kahvilat/?pid=1&lid=10",
    "wheelchair": "limited"
  }
},
{
  "type": "node",
  "id": 600394450,
  "lat": 60.1679711,
  "lon": 24.9504496,
  "tags": {
    "addr:city": "Helsinki",
    "addr:country": "FI",
    "amenity": "cafe",
    "diet:halal": "no",
    "diet:kosher": "no",
    "name": "Aschan Cafe Jugend",
    "website": "http://www.cafejugend.fi",
    "wheelchair": "no"
  }
},
{
  "type": "node",
  "id": 600401816,
  "lat": 67.6053880,
  "lon": 24.1542710,
  "tags": {
    "addr:city": "Äkäslompolo",
    "addr:country": "FI",
    "addr:housenumber": "3",
    "addr:postcode": "95970",
    "addr:street": "Sannanrannantie",
    "amenity": "cafe",
    "cuisine": "regional;burger;sandwich",
    "drive_through": "no",
    "internet_access": "wlan",
    "name": "Cafe & Bar Routa",
    "opening_hours": "Mo-Sa 09:00-18:00; Su 10:00-17:00",
    "opening_hours:covid19": "open",
    "outdoor_seating": "yes",
    "phone": "+358 400 818 884",
    "smoking": "outside",
    "snowmobile": "yes",
    "takeaway": "yes",
    "website": "https://routa.net/",
    "wheelchair": "yes"
  }
},
{
  "type": "node",
  "id": 600423099,
  "lat": 65.8462112,
  "lon": 24.1496709,
  "tags": {
    "addr:housenumber": "14",
    "addr:street": "Hallituskatu",
    "amenity": "cafe",
    "name": "Pitoporras",
    "opening_hours": "Mo-Fr 07:30-17:00; Sa 09:00-14:00",
    "phone": "+358-16-430-321",
    "website": "http://www.pitoporras.fi/"
  }
},
{
  "type": "node",
  "id": 601379355,
  "lat": 65.5854398,
  "lon": 22.1517223,
  "tags": {
    "amenity": "cafe",
    "name": "Kulturkaféet",
    "opening_hours": "Mo-Th 09:00-19:00;Fr 09:00-18:00;Sa 11:00-16:00;Su 12:00-16:00",
    "phone": "+46 920-45 59 68"
  }
},
{
  "type": "node",
  "id": 602640493,
  "lat": 62.8869973,
  "lon": 27.6325515,
  "tags": {
    "amenity": "cafe",
    "brand": "Presso",
    "name": "Presso"
  }
},
{
  "type": "node",
  "id": 603139537,
  "lat": 66.1604257,
  "lon": 29.1904999,
  "tags": {
    "alt_name": "Uuttusuon kahvila",
    "amenity": "cafe",
    "name": "Uuttusuon taukomaja",
    "piste:amenity": "cafe",
    "snowmobile": "yes",
    "website": "https://www.ruka.fi/uuttusuon-taukomaja"
  }
},
{
  "type": "node",
  "id": 603385561,
  "lat": 63.2912979,
  "lon": 22.3691944,
  "tags": {
    "addr:city": "Oravais",
    "addr:housenumber": "119",
    "addr:postcode": "66800",
    "addr:street": "Vasavägen",
    "amenity": "cafe",
    "name": "Fjärdens Kaffestuga",
    "name:fi": "Oravaisten Kahvitupa",
    "name:sv": "Fjärdens Kaffestuga",
    "phone": "(06) 385 0366",
    "website": "http://www.netikka.net/kahvitupa/"
  }
},
{
  "type": "node",
  "id": 605509126,
  "lat": 61.4530207,
  "lon": 27.2632248,
  "tags": {
    "amenity": "cafe",
    "name": "Neste Ristiina",
    "snowmobile": "yes",
    "website": "https://www.neste.fi/asema/neste-ristiina"
  }
},
{
  "type": "node",
  "id": 606996900,
  "lat": 60.1679074,
  "lon": 24.9460908,
  "tags": {
    "addr:city": "Helsinki",
    "addr:country": "FI",
    "addr:housenumber": "33",
    "addr:postcode": "00130",
    "addr:street": "Pohjoisesplanadi",
    "amenity": "cafe",
    "diet:halal": "no",
    "diet:kosher": "no",
    "name": "Café Strindberg",
    "operator": "Royal ravintolat",
    "website": "http://www.strindberg.fi/",
    "wheelchair": "yes"
  }
},